[
  {
    "order_id": "576626383066534901",
    "reporting_date": "2024-04-30",
    "customer_id": "gfys61",
    "source_type": "Sales",
    "city": "Topeka",
    "state": "Kansas",
    "state_code": "KS",
    "zipcode": "66603",
    "units_sold": 2,
    "order_sales": 29.64,
    "gross_sales": 39.98,
    "refund_amount": null,
    "is_canceled": false,
    "is_refunded": false,
    "is_returned": false,
    "latitude": 39.0553,
    "longitude": -95.6802
  },
  {
    "order_id": "576626383077347666",
    "reporting_date": "2024-04-30",
    "customer_id": "kristalhart7",
    "source_type": "Sales",
    "city": "Cameron Park",
    "state": "California",
    "state_code": "CA",
    "zipcode": "95682",
    "units_sold": 2,
    "order_sales": 14.82,
    "gross_sales": 39.98,
    "refund_amount": null,
    "is_canceled": false,
    "is_refunded": false,
    "is_returned": false,
    "latitude": 38.6465,
    "longitude": -120.9641
  },
  {
    "order_id": "576626380188914655",
    "reporting_date": "2024-04-30",
    "customer_id": "mrsv1219",
    "source_type": "Sales",
    "city": "Hempstead",
    "state": "New York",
    "state_code": "NY",
    "zipcode": "11550",
    "units_sold": 1,
    "order_sales": 14.82,
    "gross_sales": 19.99,
    "refund_amount": null,
    "is_canceled": false,
    "is_refunded": false,
    "is_returned": false,
    "latitude": 40.7049,
    "longitude": -73.6176
  },
  {
    "order_id": "576626382119211058",
    "reporting_date": "2024-04-30",
    "customer_id": "swin007",
    "source_type": "Sales",
    "city": "Kansas City",
    "state": "Missouri",
    "state_code": "MO",
    "zipcode": "64155",
    "units_sold": 2,
    "order_sales": 29.64,
    "gross_sales": 39.98,
    "refund_amount": null,
    "is_canceled": false,
    "is_refunded": false,
    "is_returned": false,
    "latitude": 39.2758,
    "longitude": -94.5704
  },
  {
    "order_id": "576626379330064906",
    "reporting_date": "2024-04-30",
    "customer_id": "saulsegovia18",
    "source_type": "Sales",
    "city": "Fullerton",
    "state": "California",
    "state_code": "CA",
    "zipcode": "92831",
    "units_sold": 2,
    "order_sales": 29.64,
    "gross_sales": 39.98,
    "refund_amount": null,
    "is_canceled": false,
    "is_refunded": false,
    "is_returned": false,
    "latitude": 33.8873,
    "longitude": -117.8946
  },
  {
    "order_id": "576626381314626141",
    "reporting_date": "2024-04-30",
    "customer_id": "calicosix",
    "source_type": "Sales",
    "city": "Waltham",
    "state": "Massachusetts",
    "state_code": "MA",
    "zipcode": "02451",
    "units_sold": 2,
    "order_sales": 29.64,
    "gross_sales": 39.98,
    "refund_amount": null,
    "is_canceled": false,
    "is_refunded": false,
    "is_returned": false,
    "latitude": 42.3986,
    "longitude": -71.2451
  },
  {
    "order_id": "576626365631009111",
    "reporting_date": "2024-04-30",
    "customer_id": "kristycalloway",
    "source_type": "Sales",
    "city": "Howey In The Hills",
    "state": "Florida",
    "state_code": "FL",
    "zipcode": "34737",
    "units_sold": 2,
    "order_sales": 29.64,
    "gross_sales": 39.98,
    "refund_amount": null,
    "is_canceled": false,
    "is_refunded": false,
    "is_returned": false,
    "latitude": 28.6971,
    "longitude": -81.7976
  },
  {
    "order_id": "576626383430062518",
    "reporting_date": "2024-04-30",
    "customer_id": "desertgolf",
    "source_type": "Sales",
    "city": "Peoria",
    "state": "Arizona",
    "state_code": "AZ",
    "zipcode": "85383",
    "units_sold": 1,
    "order_sales": 14.82,
    "gross_sales": 19.99,
    "refund_amount": null,
    "is_canceled": false,
    "is_refunded": false,
    "is_returned": false,
    "latitude": 33.7169,
    "longitude": -112.238
  },
  {
    "order_id": "576626383315178405",
    "reporting_date": "2024-04-30",
    "customer_id": "jrivasj",
    "source_type": "Sales",
    "city": "Buckeye",
    "state": "Arizona",
    "state_code": "AZ",
    "zipcode": "85326",
    "units_sold": 1,
    "order_sales": 14.82,
    "gross_sales": 19.99,
    "refund_amount": null,
    "is_canceled": false,
    "is_refunded": false,
    "is_returned": false,
    "latitude": 33.3703,
    "longitude": -112.5838
  },
  {
    "order_id": "576626367570744250",
    "reporting_date": "2024-04-30",
    "customer_id": "skislady08",
    "source_type": "Sales",
    "city": "Fort Leavenworth",
    "state": "Kansas",
    "state_code": "KS",
    "zipcode": "66027",
    "units_sold": 1,
    "order_sales": 14.82,
    "gross_sales": 19.99,
    "refund_amount": null,
    "is_canceled": false,
    "is_refunded": false,
    "is_returned": false,
    "latitude": 39.3485,
    "longitude": -94.9265
  },
  {
    "order_id": "576626383907885607",
    "reporting_date": "2024-04-30",
    "customer_id": "jorobar93",
    "source_type": "Sales",
    "city": "Lathrop",
    "state": "California",
    "state_code": "CA",
    "zipcode": "95330",
    "units_sold": 1,
    "order_sales": 14.82,
    "gross_sales": 19.99,
    "refund_amount": null,
    "is_canceled": false,
    "is_refunded": false,
    "is_returned": false,
    "latitude": 37.8209,
    "longitude": -121.2827
  },
  {
    "order_id": "576626384218984919",
    "reporting_date": "2024-04-30",
    "customer_id": "broncos303nana",
    "source_type": "Sales",
    "city": "Thornton",
    "state": "Colorado",
    "state_code": "CO",
    "zipcode": "80229",
    "units_sold": 1,
    "order_sales": 14.82,
    "gross_sales": 19.99,
    "refund_amount": null,
    "is_canceled": false,
    "is_refunded": false,
    "is_returned": false,
    "latitude": 39.8671,
    "longitude": -104.9227
  },
  {
    "order_id": "576626385908372156",
    "reporting_date": "2024-04-30",
    "customer_id": "tiff071422",
    "source_type": "Sales",
    "city": "Burbank",
    "state": "California",
    "state_code": "CA",
    "zipcode": "91506",
    "units_sold": 1,
    "order_sales": 14.82,
    "gross_sales": 19.99,
    "refund_amount": null,
    "is_canceled": false,
    "is_refunded": false,
    "is_returned": false,
    "latitude": 34.1717,
    "longitude": -118.3231
  },
  {
    "order_id": "576626385975152760",
    "reporting_date": "2024-04-30",
    "customer_id": "shelby__hale",
    "source_type": "Sales",
    "city": "Seattle",
    "state": "Washington",
    "state_code": "WA",
    "zipcode": "98155",
    "units_sold": 1,
    "order_sales": 14.82,
    "gross_sales": 19.99,
    "refund_amount": null,
    "is_canceled": false,
    "is_refunded": false,
    "is_returned": false,
    "latitude": 47.7559,
    "longitude": -122.3003
  },
  {
    "order_id": "576626386548068377",
    "reporting_date": "2024-04-30",
    "customer_id": "linanesai",
    "source_type": "Sales",
    "city": "Hemet",
    "state": "California",
    "state_code": "CA",
    "zipcode": "92544",
    "units_sold": 2,
    "order_sales": 14.82,
    "gross_sales": 39.98,
    "refund_amount": null,
    "is_canceled": false,
    "is_refunded": false,
    "is_returned": false,
    "latitude": 33.739,
    "longitude": -116.9243
  },
  {
    "order_id": "576626387018159020",
    "reporting_date": "2024-04-30",
    "customer_id": "deezayazcreepshoppe",
    "source_type": "Sales",
    "city": "New Oxford",
    "state": "Pennsylvania",
    "state_code": "PA",
    "zipcode": "17350",
    "units_sold": 1,
    "order_sales": 14.82,
    "gross_sales": 19.99,
    "refund_amount": null,
    "is_canceled": false,
    "is_refunded": false,
    "is_returned": false,
    "latitude": 39.8775,
    "longitude": -77.0643
  },
  {
    "order_id": "576626378454307092",
    "reporting_date": "2024-04-30",
    "customer_id": "duartesmija",
    "source_type": "Sales",
    "city": "Sacramento",
    "state": "California",
    "state_code": "CA",
    "zipcode": "95828",
    "units_sold": 2,
    "order_sales": 24.64,
    "gross_sales": 39.98,
    "refund_amount": null,
    "is_canceled": false,
    "is_refunded": false,
    "is_returned": false,
    "latitude": 38.4826,
    "longitude": -121.4006
  },
  {
    "order_id": "576626387393024720",
    "reporting_date": "2024-04-30",
    "customer_id": "whitlock.a",
    "source_type": "Sales",
    "city": "Edgefield",
    "state": "South Carolina",
    "state_code": "SC",
    "zipcode": "29824",
    "units_sold": 2,
    "order_sales": 29.64,
    "gross_sales": 39.98,
    "refund_amount": null,
    "is_canceled": false,
    "is_refunded": false,
    "is_returned": false,
    "latitude": 33.8056,
    "longitude": -81.966
  },
  {
    "order_id": "576626387662181262",
    "reporting_date": "2024-04-30",
    "customer_id": "klebersaenz713",
    "source_type": "Sales",
    "city": "Bay Shore",
    "state": "New York",
    "state_code": "NY",
    "zipcode": "11706",
    "units_sold": 1,
    "order_sales": 14.82,
    "gross_sales": 19.99,
    "refund_amount": null,
    "is_canceled": false,
    "is_refunded": false,
    "is_returned": false,
    "latitude": 40.7051,
    "longitude": -73.243
  },
  {
    "order_id": "576626378723332567",
    "reporting_date": "2024-04-30",
    "customer_id": "mbedgie",
    "source_type": "Sales",
    "city": "Garden Grove",
    "state": "California",
    "state_code": "CA",
    "zipcode": "92844",
    "units_sold": 1,
    "order_sales": 14.82,
    "gross_sales": 19.99,
    "refund_amount": null,
    "is_canceled": false,
    "is_refunded": false,
    "is_returned": false,
    "latitude": 33.7661,
    "longitude": -117.9738
  },
  {
    "order_id": "576626369639191028",
    "reporting_date": "2024-04-30",
    "customer_id": "russperkes",
    "source_type": "Sales",
    "city": "Pocatello",
    "state": "Idaho",
    "state_code": "ID",
    "zipcode": "83201",
    "units_sold": 1,
    "order_sales": 14.82,
    "gross_sales": 19.99,
    "refund_amount": null,
    "is_canceled": false,
    "is_refunded": false,
    "is_returned": false,
    "latitude": 42.8876,
    "longitude": -112.4381
  },
  {
    "order_id": "576626376907985612",
    "reporting_date": "2024-04-30",
    "customer_id": "famousrebal8",
    "source_type": "Sales",
    "city": "Henderson",
    "state": "Nevada",
    "state_code": "NV",
    "zipcode": "89014",
    "units_sold": 1,
    "order_sales": 14.82,
    "gross_sales": 19.99,
    "refund_amount": null,
    "is_canceled": false,
    "is_refunded": false,
    "is_returned": false,
    "latitude": 36.0564,
    "longitude": -115.078
  },
  {
    "order_id": "576626371547402994",
    "reporting_date": "2024-04-30",
    "customer_id": "rand_wil",
    "source_type": "Sales",
    "city": "Honolulu",
    "state": "Hawaii",
    "state_code": "HI",
    "zipcode": "96818",
    "units_sold": 1,
    "order_sales": 14.82,
    "gross_sales": 19.99,
    "refund_amount": null,
    "is_canceled": false,
    "is_refunded": false,
    "is_returned": false,
    "latitude": 21.3532,
    "longitude": -157.9269
  },
  {
    "order_id": "576626387916918796",
    "reporting_date": "2024-04-30",
    "customer_id": "loko8211",
    "source_type": "Sales",
    "city": "Fullerton",
    "state": "California",
    "state_code": "CA",
    "zipcode": "92831",
    "units_sold": 1,
    "order_sales": 14.82,
    "gross_sales": 19.99,
    "refund_amount": null,
    "is_canceled": false,
    "is_refunded": false,
    "is_returned": false,
    "latitude": 33.8873,
    "longitude": -117.8946
  },
  {
    "order_id": "576626367623697141",
    "reporting_date": "2024-04-30",
    "customer_id": "dytcx8bjrt7q",
    "source_type": "Sales",
    "city": "Dubuque",
    "state": "Iowa",
    "state_code": "IA",
    "zipcode": "52001",
    "units_sold": 2,
    "order_sales": 14.82,
    "gross_sales": 39.98,
    "refund_amount": null,
    "is_canceled": false,
    "is_refunded": false,
    "is_returned": false,
    "latitude": 42.515,
    "longitude": -90.6819
  },
  {
    "order_id": "576626368248124032",
    "reporting_date": "2024-04-30",
    "customer_id": "thesassyseller",
    "source_type": "Sales",
    "city": "Houston",
    "state": "Texas",
    "state_code": "TX",
    "zipcode": "77062",
    "units_sold": 1,
    "order_sales": 14.82,
    "gross_sales": 19.99,
    "refund_amount": null,
    "is_canceled": false,
    "is_refunded": false,
    "is_returned": false,
    "latitude": 29.5721,
    "longitude": -95.1303
  },
  {
    "order_id": "576626368507711797",
    "reporting_date": "2024-04-30",
    "customer_id": "kalicat4563",
    "source_type": "Sales",
    "city": "Merrimac",
    "state": "Massachusetts",
    "state_code": "MA",
    "zipcode": "01860",
    "units_sold": 2,
    "order_sales": 29.64,
    "gross_sales": 39.98,
    "refund_amount": null,
    "is_canceled": false,
    "is_refunded": false,
    "is_returned": false,
    "latitude": 42.8346,
    "longitude": -71.0047
  },
  {
    "order_id": "576626368746066201",
    "reporting_date": "2024-04-30",
    "customer_id": "eliezeemi7",
    "source_type": "Sales",
    "city": "Littlerock",
    "state": "California",
    "state_code": "CA",
    "zipcode": "93543",
    "units_sold": 2,
    "order_sales": 29.64,
    "gross_sales": 39.98,
    "refund_amount": null,
    "is_canceled": false,
    "is_refunded": false,
    "is_returned": false,
    "latitude": 34.4891,
    "longitude": -117.9708
  },
  {
    "order_id": "576626370202014073",
    "reporting_date": "2024-04-30",
    "customer_id": "cdelegan",
    "source_type": "Sales",
    "city": "Lisle",
    "state": "Illinois",
    "state_code": "IL",
    "zipcode": "60532",
    "units_sold": 2,
    "order_sales": 29.64,
    "gross_sales": 39.98,
    "refund_amount": null,
    "is_canceled": false,
    "is_refunded": false,
    "is_returned": false,
    "latitude": 41.7862,
    "longitude": -88.0879
  },
  {
    "order_id": "576626370265059775",
    "reporting_date": "2024-04-30",
    "customer_id": "rpdesigns78",
    "source_type": "Sales",
    "city": "Texas City",
    "state": "Texas",
    "state_code": "TX",
    "zipcode": "77590",
    "units_sold": 1,
    "order_sales": 14.82,
    "gross_sales": 19.99,
    "refund_amount": null,
    "is_canceled": false,
    "is_refunded": false,
    "is_returned": false,
    "latitude": 29.397,
    "longitude": -94.9203
  },
  {
    "order_id": "576626370418873202",
    "reporting_date": "2024-04-30",
    "customer_id": "thatwhitegirl90",
    "source_type": "Sales",
    "city": "San Tan Valley",
    "state": "Arizona",
    "state_code": "AZ",
    "zipcode": "85140",
    "units_sold": 1,
    "order_sales": 14.82,
    "gross_sales": 19.99,
    "refund_amount": null,
    "is_canceled": false,
    "is_refunded": false,
    "is_returned": false,
    "latitude": 33.1911,
    "longitude": -111.528
  },
  {
    "order_id": "576626372113764847",
    "reporting_date": "2024-04-30",
    "customer_id": "maribelgarcia594",
    "source_type": "Sales",
    "city": "Baldwin Park",
    "state": "California",
    "state_code": "CA",
    "zipcode": "91706",
    "units_sold": 1,
    "order_sales": 14.82,
    "gross_sales": 19.99,
    "refund_amount": null,
    "is_canceled": false,
    "is_refunded": false,
    "is_returned": false,
    "latitude": 34.0964,
    "longitude": -117.9682
  },
  {
    "order_id": "576626376674873836",
    "reporting_date": "2024-04-30",
    "customer_id": "molliethompson16",
    "source_type": "Sales",
    "city": "Riverside",
    "state": "California",
    "state_code": "CA",
    "zipcode": "92508",
    "units_sold": 1,
    "order_sales": 14.82,
    "gross_sales": 19.99,
    "refund_amount": null,
    "is_canceled": false,
    "is_refunded": false,
    "is_returned": false,
    "latitude": 33.8897,
    "longitude": -117.3043
  },
  {
    "order_id": "576626372945678908",
    "reporting_date": "2024-04-30",
    "customer_id": "mrpawka",
    "source_type": "Sales",
    "city": "Aurora",
    "state": "Colorado",
    "state_code": "CO",
    "zipcode": "80016",
    "units_sold": 2,
    "order_sales": 29.64,
    "gross_sales": 39.98,
    "refund_amount": null,
    "is_canceled": false,
    "is_refunded": false,
    "is_returned": false,
    "latitude": 39.6012,
    "longitude": -104.7394
  },
  {
    "order_id": "576626373173023445",
    "reporting_date": "2024-04-30",
    "customer_id": "kingsdad0",
    "source_type": "Sales",
    "city": "Modesto",
    "state": "California",
    "state_code": "CA",
    "zipcode": "95354",
    "units_sold": 1,
    "order_sales": 14.82,
    "gross_sales": 19.99,
    "refund_amount": null,
    "is_canceled": false,
    "is_refunded": false,
    "is_returned": false,
    "latitude": 37.6409,
    "longitude": -120.9749
  },
  {
    "order_id": "576626373302260696",
    "reporting_date": "2024-04-30",
    "customer_id": "celeste.fisher",
    "source_type": "Sales",
    "city": "Roanoke",
    "state": "Virginia",
    "state_code": "VA",
    "zipcode": "24016",
    "units_sold": 2,
    "order_sales": 29.64,
    "gross_sales": 39.98,
    "refund_amount": null,
    "is_canceled": false,
    "is_refunded": false,
    "is_returned": false,
    "latitude": 37.2704,
    "longitude": -79.9535
  },
  {
    "order_id": "576626373999628382",
    "reporting_date": "2024-04-30",
    "customer_id": "kelly7227",
    "source_type": "Sales",
    "city": "Port Orchard",
    "state": "Washington",
    "state_code": "WA",
    "zipcode": "98367",
    "units_sold": 1,
    "order_sales": 14.82,
    "gross_sales": 19.99,
    "refund_amount": null,
    "is_canceled": false,
    "is_refunded": false,
    "is_returned": false,
    "latitude": 47.4707,
    "longitude": -122.651
  },
  {
    "order_id": "576626374328422951",
    "reporting_date": "2024-04-30",
    "customer_id": "user9114391362441",
    "source_type": "Sales",
    "city": "Torrance",
    "state": "California",
    "state_code": "CA",
    "zipcode": "90505",
    "units_sold": 1,
    "order_sales": 14.82,
    "gross_sales": 19.99,
    "refund_amount": null,
    "is_canceled": false,
    "is_refunded": false,
    "is_returned": false,
    "latitude": 33.8106,
    "longitude": -118.3507
  },
  {
    "order_id": "576626375604015154",
    "reporting_date": "2024-04-30",
    "customer_id": "michellemorgan718",
    "source_type": "Sales",
    "city": "Brooklyn",
    "state": "New York",
    "state_code": "NY",
    "zipcode": "11230",
    "units_sold": 1,
    "order_sales": 14.82,
    "gross_sales": 19.99,
    "refund_amount": null,
    "is_canceled": false,
    "is_refunded": false,
    "is_returned": false,
    "latitude": 40.6225,
    "longitude": -73.965
  },
  {
    "order_id": "576626375671780211",
    "reporting_date": "2024-04-30",
    "customer_id": "tashatovar0",
    "source_type": "Sales",
    "city": "Tifton",
    "state": "Georgia",
    "state_code": "GA",
    "zipcode": "31794",
    "units_sold": 1,
    "order_sales": 14.82,
    "gross_sales": 19.99,
    "refund_amount": null,
    "is_canceled": false,
    "is_refunded": false,
    "is_returned": false,
    "latitude": 31.4639,
    "longitude": -83.4999
  },
  {
    "order_id": "576626376640925868",
    "reporting_date": "2024-04-30",
    "customer_id": "timewaster00",
    "source_type": "Sales",
    "city": "Frisco",
    "state": "Texas",
    "state_code": "TX",
    "zipcode": "75036",
    "units_sold": 1,
    "order_sales": 14.82,
    "gross_sales": 19.99,
    "refund_amount": null,
    "is_canceled": false,
    "is_refunded": false,
    "is_returned": false,
    "latitude": 33.1499,
    "longitude": -96.8241
  },
  {
    "order_id": "576626387779293980",
    "reporting_date": "2024-04-30",
    "customer_id": "tony_tarcza",
    "source_type": "Sales",
    "city": "Colorado Springs",
    "state": "Colorado",
    "state_code": "CO",
    "zipcode": "80920",
    "units_sold": 1,
    "order_sales": 7.41,
    "gross_sales": 19.99,
    "refund_amount": null,
    "is_canceled": false,
    "is_refunded": false,
    "is_returned": false,
    "latitude": 38.9497,
    "longitude": -104.767
  },
  {
    "order_id": "576626406560731757",
    "reporting_date": "2024-04-30",
    "customer_id": "laurareeves84",
    "source_type": "Sales",
    "city": "Crosby",
    "state": "Texas",
    "state_code": "TX",
    "zipcode": "77532",
    "units_sold": 1,
    "order_sales": 14.82,
    "gross_sales": 19.99,
    "refund_amount": null,
    "is_canceled": false,
    "is_refunded": false,
    "is_returned": false,
    "latitude": 29.9249,
    "longitude": -95.0578
  },
  {
    "order_id": "576626388104876405",
    "reporting_date": "2024-04-30",
    "customer_id": "lfcbvb",
    "source_type": "Sales",
    "city": "Buckeye",
    "state": "Arizona",
    "state_code": "AZ",
    "zipcode": "85396",
    "units_sold": 1,
    "order_sales": 7.41,
    "gross_sales": 19.99,
    "refund_amount": null,
    "is_canceled": false,
    "is_refunded": false,
    "is_returned": false,
    "latitude": 33.468,
    "longitude": -112.4787
  },
  {
    "order_id": "576626388235883415",
    "reporting_date": "2024-04-30",
    "customer_id": "fredmuribus",
    "source_type": "Sales",
    "city": "San Anselmo",
    "state": "California",
    "state_code": "CA",
    "zipcode": "94960",
    "units_sold": 1,
    "order_sales": 14.82,
    "gross_sales": 19.99,
    "refund_amount": null,
    "is_canceled": false,
    "is_refunded": false,
    "is_returned": false,
    "latitude": 37.9846,
    "longitude": -122.5711
  },
  {
    "order_id": "576626400976736753",
    "reporting_date": "2024-04-30",
    "customer_id": "alevario567",
    "source_type": "Sales",
    "city": "Eagle Point",
    "state": "Oregon",
    "state_code": "OR",
    "zipcode": "97524",
    "units_sold": 1,
    "order_sales": 14.82,
    "gross_sales": 19.99,
    "refund_amount": null,
    "is_canceled": false,
    "is_refunded": false,
    "is_returned": false,
    "latitude": 42.4935,
    "longitude": -122.8088
  },
  {
    "order_id": "576626401688589091",
    "reporting_date": "2024-04-30",
    "customer_id": "dan_kelly_here",
    "source_type": "Sales",
    "city": "Bonney Lake",
    "state": "Washington",
    "state_code": "WA",
    "zipcode": "98391",
    "units_sold": 2,
    "order_sales": 29.64,
    "gross_sales": 39.98,
    "refund_amount": null,
    "is_canceled": false,
    "is_refunded": false,
    "is_returned": false,
    "latitude": 47.143,
    "longitude": -122.1644
  },
  {
    "order_id": "576626402407191505",
    "reporting_date": "2024-04-30",
    "customer_id": "mimiz9991",
    "source_type": "Sales",
    "city": "Bradenton",
    "state": "Florida",
    "state_code": "FL",
    "zipcode": "34207",
    "units_sold": 1,
    "order_sales": 14.82,
    "gross_sales": 19.99,
    "refund_amount": null,
    "is_canceled": false,
    "is_refunded": false,
    "is_returned": false,
    "latitude": 27.4394,
    "longitude": -82.5778
  },
  {
    "order_id": "576626402877149193",
    "reporting_date": "2024-04-30",
    "customer_id": "champagnebebe_",
    "source_type": "Sales",
    "city": "New Orleans",
    "state": "Louisiana",
    "state_code": "LA",
    "zipcode": "70122",
    "units_sold": 2,
    "order_sales": 29.64,
    "gross_sales": 39.98,
    "refund_amount": null,
    "is_canceled": false,
    "is_refunded": false,
    "is_returned": false,
    "latitude": 30.0056,
    "longitude": -90.0644
  },
  {
    "order_id": "576626403149451865",
    "reporting_date": "2024-04-30",
    "customer_id": "nantha1246",
    "source_type": "Sales",
    "city": "Rancho Cordova",
    "state": "California",
    "state_code": "CA",
    "zipcode": "95670",
    "units_sold": 1,
    "order_sales": 14.82,
    "gross_sales": 19.99,
    "refund_amount": null,
    "is_canceled": false,
    "is_refunded": false,
    "is_returned": false,
    "latitude": 38.6072,
    "longitude": -121.2761
  },
  {
    "order_id": "576626403478900811",
    "reporting_date": "2024-04-30",
    "customer_id": "marinaa0925",
    "source_type": "Sales",
    "city": "Tucson",
    "state": "Arizona",
    "state_code": "AZ",
    "zipcode": "85713",
    "units_sold": 1,
    "order_sales": 14.82,
    "gross_sales": 19.99,
    "refund_amount": null,
    "is_canceled": false,
    "is_refunded": false,
    "is_returned": false,
    "latitude": 32.1941,
    "longitude": -110.9739
  },
  {
    "order_id": "576626404120891886",
    "reporting_date": "2024-04-30",
    "customer_id": "brittanycallaghan2",
    "source_type": "Sales",
    "city": "Tumwater",
    "state": "Washington",
    "state_code": "WA",
    "zipcode": "98512",
    "units_sold": 2,
    "order_sales": 24.64,
    "gross_sales": 39.98,
    "refund_amount": null,
    "is_canceled": false,
    "is_refunded": false,
    "is_returned": false,
    "latitude": 46.9498,
    "longitude": -123.0212
  },
  {
    "order_id": "576626404422684923",
    "reporting_date": "2024-04-30",
    "customer_id": "onanothalevel20",
    "source_type": "Sales",
    "city": "St Petersburg",
    "state": "Florida",
    "state_code": "FL",
    "zipcode": "33701",
    "units_sold": 1,
    "order_sales": 14.82,
    "gross_sales": 19.99,
    "refund_amount": null,
    "is_canceled": false,
    "is_refunded": false,
    "is_returned": false,
    "latitude": 27.7723,
    "longitude": -82.6386
  },
  {
    "order_id": "576626405237822314",
    "reporting_date": "2024-04-30",
    "customer_id": "maberidid",
    "source_type": "Sales",
    "city": "Orlando",
    "state": "Florida",
    "state_code": "FL",
    "zipcode": "32812",
    "units_sold": 1,
    "order_sales": 7.41,
    "gross_sales": 19.99,
    "refund_amount": null,
    "is_canceled": false,
    "is_refunded": false,
    "is_returned": false,
    "latitude": 28.4998,
    "longitude": -81.3288
  },
  {
    "order_id": "576626405564321850",
    "reporting_date": "2024-04-30",
    "customer_id": "celia_olivera80",
    "source_type": "Sales",
    "city": "Tulare",
    "state": "California",
    "state_code": "CA",
    "zipcode": "93274",
    "units_sold": 1,
    "order_sales": 14.82,
    "gross_sales": 19.99,
    "refund_amount": null,
    "is_canceled": false,
    "is_refunded": false,
    "is_returned": false,
    "latitude": 36.2022,
    "longitude": -119.338
  },
  {
    "order_id": "576626406132061095",
    "reporting_date": "2024-04-30",
    "customer_id": "zral05",
    "source_type": "Sales",
    "city": "Craigmont",
    "state": "Idaho",
    "state_code": "ID",
    "zipcode": "83523",
    "units_sold": 2,
    "order_sales": 29.64,
    "gross_sales": 39.98,
    "refund_amount": null,
    "is_canceled": false,
    "is_refunded": false,
    "is_returned": false,
    "latitude": 46.2453,
    "longitude": -116.4677
  },
  {
    "order_id": "576626406141038859",
    "reporting_date": "2024-04-30",
    "customer_id": "user596146900",
    "source_type": "Sales",
    "city": "Burbank",
    "state": "California",
    "state_code": "CA",
    "zipcode": "91504",
    "units_sold": 1,
    "order_sales": 14.82,
    "gross_sales": 19.99,
    "refund_amount": null,
    "is_canceled": false,
    "is_refunded": false,
    "is_returned": false,
    "latitude": 34.2001,
    "longitude": -118.3264
  },
  {
    "order_id": "576626407672812124",
    "reporting_date": "2024-04-30",
    "customer_id": "rosen8r",
    "source_type": "Sales",
    "city": "Wichita",
    "state": "Kansas",
    "state_code": "KS",
    "zipcode": "67226",
    "units_sold": 1,
    "order_sales": 14.82,
    "gross_sales": 19.99,
    "refund_amount": null,
    "is_canceled": false,
    "is_refunded": false,
    "is_returned": false,
    "latitude": 37.7379,
    "longitude": -97.2479
  },
  {
    "order_id": "576626407810174979",
    "reporting_date": "2024-04-30",
    "customer_id": "ecombs14",
    "source_type": "Sales",
    "city": "Henderson",
    "state": "Nevada",
    "state_code": "NV",
    "zipcode": "89002",
    "units_sold": 1,
    "order_sales": 14.82,
    "gross_sales": 19.99,
    "refund_amount": null,
    "is_canceled": false,
    "is_refunded": false,
    "is_returned": false,
    "latitude": 36.0008,
    "longitude": -114.9588
  },
  {
    "order_id": "576626407952191587",
    "reporting_date": "2024-04-30",
    "customer_id": "frank17304",
    "source_type": "Sales",
    "city": "Aspers",
    "state": "Pennsylvania",
    "state_code": "PA",
    "zipcode": "17304",
    "units_sold": 2,
    "order_sales": 29.64,
    "gross_sales": 39.98,
    "refund_amount": null,
    "is_canceled": false,
    "is_refunded": false,
    "is_returned": false,
    "latitude": 39.9765,
    "longitude": -77.2287
  },
  {
    "order_id": "576626410631041639",
    "reporting_date": "2024-04-30",
    "customer_id": "npmoore007",
    "source_type": "Sales",
    "city": "Oroville",
    "state": "California",
    "state_code": "CA",
    "zipcode": "95966",
    "units_sold": 2,
    "order_sales": 29.64,
    "gross_sales": 39.98,
    "refund_amount": null,
    "is_canceled": false,
    "is_refunded": false,
    "is_returned": false,
    "latitude": 39.4877,
    "longitude": -121.4698
  },
  {
    "order_id": "576626409815642871",
    "reporting_date": "2024-04-30",
    "customer_id": "texasboomer11",
    "source_type": "Sales",
    "city": "Dallas",
    "state": "Texas",
    "state_code": "TX",
    "zipcode": "75228",
    "units_sold": 1,
    "order_sales": 14.82,
    "gross_sales": 19.99,
    "refund_amount": null,
    "is_canceled": false,
    "is_refunded": false,
    "is_returned": false,
    "latitude": 32.825,
    "longitude": -96.6784
  },
  {
    "order_id": "576626364785463407",
    "reporting_date": "2024-04-30",
    "customer_id": "holyshitballs71",
    "source_type": "Sales",
    "city": "Phoenix",
    "state": "Arizona",
    "state_code": "AZ",
    "zipcode": "85032",
    "units_sold": 2,
    "order_sales": 29.64,
    "gross_sales": 39.98,
    "refund_amount": null,
    "is_canceled": false,
    "is_refunded": false,
    "is_returned": false,
    "latitude": 33.6238,
    "longitude": -112.0044
  },
  {
    "order_id": "576626410234614289",
    "reporting_date": "2024-04-30",
    "customer_id": "mbh031974",
    "source_type": "Sales",
    "city": "Chino",
    "state": "California",
    "state_code": "CA",
    "zipcode": "91710",
    "units_sold": 1,
    "order_sales": 14.82,
    "gross_sales": 19.99,
    "refund_amount": null,
    "is_canceled": false,
    "is_refunded": false,
    "is_returned": false,
    "latitude": 34.0125,
    "longitude": -117.6844
  },
  {
    "order_id": "576626400828232267",
    "reporting_date": "2024-04-30",
    "customer_id": "chellebelle2007",
    "source_type": "Sales",
    "city": "Ballinger",
    "state": "Texas",
    "state_code": "TX",
    "zipcode": "76821",
    "units_sold": 1,
    "order_sales": 14.82,
    "gross_sales": 19.99,
    "refund_amount": null,
    "is_canceled": false,
    "is_refunded": false,
    "is_returned": false,
    "latitude": 31.7468,
    "longitude": -99.9589
  },
  {
    "order_id": "576626400554029938",
    "reporting_date": "2024-04-30",
    "customer_id": "soxsfan06",
    "source_type": "Sales",
    "city": "Orange Park",
    "state": "Florida",
    "state_code": "FL",
    "zipcode": "32073",
    "units_sold": 1,
    "order_sales": 14.82,
    "gross_sales": 19.99,
    "refund_amount": null,
    "is_canceled": false,
    "is_refunded": false,
    "is_returned": false,
    "latitude": 30.1637,
    "longitude": -81.7291
  },
  {
    "order_id": "576626400421187778",
    "reporting_date": "2024-04-30",
    "customer_id": "amuse1186vv",
    "source_type": "Sales",
    "city": "Jonesville",
    "state": "Louisiana",
    "state_code": "LA",
    "zipcode": "71343",
    "units_sold": 1,
    "order_sales": 14.82,
    "gross_sales": 19.99,
    "refund_amount": null,
    "is_canceled": false,
    "is_refunded": false,
    "is_returned": false,
    "latitude": 31.6862,
    "longitude": -91.8678
  },
  {
    "order_id": "576626391555477521",
    "reporting_date": "2024-04-30",
    "customer_id": "venessa920",
    "source_type": "Sales",
    "city": "Glendora",
    "state": "California",
    "state_code": "CA",
    "zipcode": "91740",
    "units_sold": 1,
    "order_sales": 14.82,
    "gross_sales": 19.99,
    "refund_amount": null,
    "is_canceled": false,
    "is_refunded": false,
    "is_returned": false,
    "latitude": 34.1287,
    "longitude": -117.8552
  },
  {
    "order_id": "576626388479808364",
    "reporting_date": "2024-04-30",
    "customer_id": "koalafiedhacker",
    "source_type": "Sales",
    "city": "Marathon",
    "state": "Florida",
    "state_code": "FL",
    "zipcode": "33050",
    "units_sold": 1,
    "order_sales": 14.82,
    "gross_sales": 19.99,
    "refund_amount": null,
    "is_canceled": false,
    "is_refunded": false,
    "is_returned": false,
    "latitude": 24.7279,
    "longitude": -81.0386
  },
  {
    "order_id": "576626388722356809",
    "reporting_date": "2024-04-30",
    "customer_id": "spoonfullofsally",
    "source_type": "Sales",
    "city": "Tempe",
    "state": "Arizona",
    "state_code": "AZ",
    "zipcode": "85282",
    "units_sold": 1,
    "order_sales": 9.82,
    "gross_sales": 19.99,
    "refund_amount": null,
    "is_canceled": false,
    "is_refunded": false,
    "is_returned": false,
    "latitude": 33.3917,
    "longitude": -111.9249
  },
  {
    "order_id": "576626389184778314",
    "reporting_date": "2024-04-30",
    "customer_id": "denverdogsitter",
    "source_type": "Sales",
    "city": "Denver",
    "state": "Colorado",
    "state_code": "CO",
    "zipcode": "80123",
    "units_sold": 2,
    "order_sales": 29.64,
    "gross_sales": 39.98,
    "refund_amount": null,
    "is_canceled": false,
    "is_refunded": false,
    "is_returned": false,
    "latitude": 39.6206,
    "longitude": -105.0901
  },
  {
    "order_id": "576626389345407105",
    "reporting_date": "2024-04-30",
    "customer_id": "kpolanco2285",
    "source_type": "Sales",
    "city": "North Brookfield",
    "state": "Massachusetts",
    "state_code": "MA",
    "zipcode": "01535",
    "units_sold": 1,
    "order_sales": 14.82,
    "gross_sales": 19.99,
    "refund_amount": null,
    "is_canceled": false,
    "is_refunded": false,
    "is_returned": false,
    "latitude": 42.2665,
    "longitude": -72.0821
  },
  {
    "order_id": "576626390155694173",
    "reporting_date": "2024-04-30",
    "customer_id": "mariacristinavasq6",
    "source_type": "Sales",
    "city": "Crowley",
    "state": "Texas",
    "state_code": "TX",
    "zipcode": "76036",
    "units_sold": 1,
    "order_sales": 14.82,
    "gross_sales": 19.99,
    "refund_amount": null,
    "is_canceled": false,
    "is_refunded": false,
    "is_returned": false,
    "latitude": 32.5814,
    "longitude": -97.3703
  },
  {
    "order_id": "576626390169653304",
    "reporting_date": "2024-04-30",
    "customer_id": "stacykeon2",
    "source_type": "Sales",
    "city": "Sacramento",
    "state": "California",
    "state_code": "CA",
    "zipcode": "95824",
    "units_sold": 2,
    "order_sales": 29.64,
    "gross_sales": 39.98,
    "refund_amount": null,
    "is_canceled": false,
    "is_refunded": false,
    "is_returned": false,
    "latitude": 38.5178,
    "longitude": -121.4419
  },
  {
    "order_id": "576626390412464715",
    "reporting_date": "2024-04-30",
    "customer_id": "krw_13",
    "source_type": "Sales",
    "city": "Bakersfield",
    "state": "California",
    "state_code": "CA",
    "zipcode": "93307",
    "units_sold": 1,
    "order_sales": 14.82,
    "gross_sales": 19.99,
    "refund_amount": null,
    "is_canceled": false,
    "is_refunded": false,
    "is_returned": false,
    "latitude": 35.3275,
    "longitude": -118.9839
  },
  {
    "order_id": "576626390605861453",
    "reporting_date": "2024-04-30",
    "customer_id": "stonie.bologna",
    "source_type": "Sales",
    "city": "Hamburg",
    "state": "New Jersey",
    "state_code": "NJ",
    "zipcode": "07419",
    "units_sold": 1,
    "order_sales": 14.82,
    "gross_sales": 19.99,
    "refund_amount": null,
    "is_canceled": false,
    "is_refunded": false,
    "is_returned": false,
    "latitude": 41.1467,
    "longitude": -74.5874
  },
  {
    "order_id": "576626392617750944",
    "reporting_date": "2024-04-30",
    "customer_id": "itsbrandee",
    "source_type": "Sales",
    "city": "South Hill",
    "state": "Virginia",
    "state_code": "VA",
    "zipcode": "23970",
    "units_sold": 1,
    "order_sales": 14.82,
    "gross_sales": 19.99,
    "refund_amount": null,
    "is_canceled": false,
    "is_refunded": false,
    "is_returned": false,
    "latitude": 36.7124,
    "longitude": -78.1534
  },
  {
    "order_id": "576626398907372184",
    "reporting_date": "2024-04-30",
    "customer_id": "mo_mo_martin",
    "source_type": "Sales",
    "city": "Poway",
    "state": "California",
    "state_code": "CA",
    "zipcode": "92064",
    "units_sold": 3,
    "order_sales": 44.46,
    "gross_sales": 59.97,
    "refund_amount": null,
    "is_canceled": false,
    "is_refunded": false,
    "is_returned": false,
    "latitude": 32.9756,
    "longitude": -117.0402
  },
  {
    "order_id": "576626394114199744",
    "reporting_date": "2024-04-30",
    "customer_id": "laurennorali8",
    "source_type": "Sales",
    "city": "Fort Worth",
    "state": "Texas",
    "state_code": "TX",
    "zipcode": "76115",
    "units_sold": 1,
    "order_sales": 14.82,
    "gross_sales": 19.99,
    "refund_amount": null,
    "is_canceled": false,
    "is_refunded": false,
    "is_returned": false,
    "latitude": 32.6796,
    "longitude": -97.3336
  },
  {
    "order_id": "576626395280216480",
    "reporting_date": "2024-04-30",
    "customer_id": "itsbrandee",
    "source_type": "Sales",
    "city": "Sumter",
    "state": "South Carolina",
    "state_code": "SC",
    "zipcode": "29153",
    "units_sold": 2,
    "order_sales": 25.2,
    "gross_sales": 39.98,
    "refund_amount": null,
    "is_canceled": false,
    "is_refunded": false,
    "is_returned": false,
    "latitude": 33.9446,
    "longitude": -80.3206
  },
  {
    "order_id": "576626395433374452",
    "reporting_date": "2024-04-30",
    "customer_id": "dmelsh",
    "source_type": "Sales",
    "city": "Saint Louis",
    "state": "Missouri",
    "state_code": "MO",
    "zipcode": "63122",
    "units_sold": 2,
    "order_sales": 29.64,
    "gross_sales": 39.98,
    "refund_amount": null,
    "is_canceled": false,
    "is_refunded": false,
    "is_returned": false,
    "latitude": 38.5781,
    "longitude": -90.4256
  },
  {
    "order_id": "576626395649774237",
    "reporting_date": "2024-04-30",
    "customer_id": "dthomas3912",
    "source_type": "Sales",
    "city": "Kennewick",
    "state": "Washington",
    "state_code": "WA",
    "zipcode": "99337",
    "units_sold": 2,
    "order_sales": 29.64,
    "gross_sales": 39.98,
    "refund_amount": null,
    "is_canceled": false,
    "is_refunded": false,
    "is_returned": false,
    "latitude": 46.1814,
    "longitude": -119.1383
  },
  {
    "order_id": "576626395999998245",
    "reporting_date": "2024-04-30",
    "customer_id": "kristypop419",
    "source_type": "Sales",
    "city": "Dunnigan",
    "state": "California",
    "state_code": "CA",
    "zipcode": "95937",
    "units_sold": 1,
    "order_sales": 14.82,
    "gross_sales": 19.99,
    "refund_amount": null,
    "is_canceled": false,
    "is_refunded": false,
    "is_returned": false,
    "latitude": 38.887,
    "longitude": -121.9992
  },
  {
    "order_id": "576626396453049129",
    "reporting_date": "2024-04-30",
    "customer_id": "christieholderdean",
    "source_type": "Sales",
    "city": "Prattville",
    "state": "Alabama",
    "state_code": "AL",
    "zipcode": "36067",
    "units_sold": 1,
    "order_sales": 8.89,
    "gross_sales": 19.99,
    "refund_amount": null,
    "is_canceled": false,
    "is_refunded": false,
    "is_returned": false,
    "latitude": 32.4715,
    "longitude": -86.4831
  },
  {
    "order_id": "576626397357839296",
    "reporting_date": "2024-04-30",
    "customer_id": "aleashia1982",
    "source_type": "Sales",
    "city": "Livingston",
    "state": "Texas",
    "state_code": "TX",
    "zipcode": "77351",
    "units_sold": 1,
    "order_sales": 14.82,
    "gross_sales": 19.99,
    "refund_amount": null,
    "is_canceled": false,
    "is_refunded": false,
    "is_returned": false,
    "latitude": 30.6829,
    "longitude": -94.8976
  },
  {
    "order_id": "576626397928329280",
    "reporting_date": "2024-04-30",
    "customer_id": "icattani",
    "source_type": "Sales",
    "city": "Roseville",
    "state": "California",
    "state_code": "CA",
    "zipcode": "95747",
    "units_sold": 1,
    "order_sales": 14.82,
    "gross_sales": 19.99,
    "refund_amount": null,
    "is_canceled": false,
    "is_refunded": false,
    "is_returned": false,
    "latitude": 38.7703,
    "longitude": -121.3372
  },
  {
    "order_id": "576626364804928299",
    "reporting_date": "2024-04-30",
    "customer_id": "chandrasmoon",
    "source_type": "Sales",
    "city": "Las Vegas",
    "state": "Nevada",
    "state_code": "NV",
    "zipcode": "89129",
    "units_sold": 1,
    "order_sales": 14.82,
    "gross_sales": 19.99,
    "refund_amount": null,
    "is_canceled": false,
    "is_refunded": false,
    "is_returned": false,
    "latitude": 36.245,
    "longitude": -115.2743
  },
  {
    "order_id": "576626329508090637",
    "reporting_date": "2024-04-30",
    "customer_id": "tiffanycherise8",
    "source_type": "Sales",
    "city": "Chicago",
    "state": "Illinois",
    "state_code": "IL",
    "zipcode": "60621",
    "units_sold": 2,
    "order_sales": 14.82,
    "gross_sales": 39.98,
    "refund_amount": null,
    "is_canceled": false,
    "is_refunded": false,
    "is_returned": false,
    "latitude": 41.775,
    "longitude": -87.6421
  },
  {
    "order_id": "576626364459619074",
    "reporting_date": "2024-04-30",
    "customer_id": "rappdaddie",
    "source_type": "Sales",
    "city": "Koshkonong",
    "state": "Missouri",
    "state_code": "MO",
    "zipcode": "65692",
    "units_sold": 1,
    "order_sales": 9.66,
    "gross_sales": 19.99,
    "refund_amount": null,
    "is_canceled": false,
    "is_refunded": false,
    "is_returned": false,
    "latitude": 36.6056,
    "longitude": -91.6304
  },
  {
    "order_id": "576626364409483373",
    "reporting_date": "2024-04-30",
    "customer_id": "lrv1791",
    "source_type": "Sales",
    "city": "Rosemead",
    "state": "California",
    "state_code": "CA",
    "zipcode": "91770",
    "units_sold": 1,
    "order_sales": 14.82,
    "gross_sales": 19.99,
    "refund_amount": null,
    "is_canceled": false,
    "is_refunded": false,
    "is_returned": false,
    "latitude": 34.0658,
    "longitude": -118.0853
  },
  {
    "order_id": "576626334794421215",
    "reporting_date": "2024-04-30",
    "customer_id": "magarc1229",
    "source_type": "Sales",
    "city": "Berwyn",
    "state": "Illinois",
    "state_code": "IL",
    "zipcode": "60402",
    "units_sold": 1,
    "order_sales": 14.82,
    "gross_sales": 19.99,
    "refund_amount": null,
    "is_canceled": false,
    "is_refunded": false,
    "is_returned": false,
    "latitude": 41.8347,
    "longitude": -87.7914
  },
  {
    "order_id": "576626335131341406",
    "reporting_date": "2024-04-30",
    "customer_id": "angie88maria",
    "source_type": "Sales",
    "city": "Antelope",
    "state": "California",
    "state_code": "CA",
    "zipcode": "95843",
    "units_sold": 1,
    "order_sales": 8.89,
    "gross_sales": 19.99,
    "refund_amount": null,
    "is_canceled": false,
    "is_refunded": false,
    "is_returned": false,
    "latitude": 38.7159,
    "longitude": -121.3648
  },
  {
    "order_id": "576626335240328098",
    "reporting_date": "2024-04-30",
    "customer_id": "cat7244",
    "source_type": "Sales",
    "city": "Quincy",
    "state": "Massachusetts",
    "state_code": "MA",
    "zipcode": "02169",
    "units_sold": 2,
    "order_sales": 29.64,
    "gross_sales": 39.98,
    "refund_amount": null,
    "is_canceled": false,
    "is_refunded": false,
    "is_returned": false,
    "latitude": 42.2491,
    "longitude": -70.9978
  },
  {
    "order_id": "576626335638458532",
    "reporting_date": "2024-04-30",
    "customer_id": "dee_1167",
    "source_type": "Sales",
    "city": "Vanceburg",
    "state": "Kentucky",
    "state_code": "KY",
    "zipcode": "41179",
    "units_sold": 1,
    "order_sales": 14.82,
    "gross_sales": 19.99,
    "refund_amount": null,
    "is_canceled": false,
    "is_refunded": false,
    "is_returned": false,
    "latitude": 38.4699,
    "longitude": -83.2702
  },
  {
    "order_id": "576626336036852197",
    "reporting_date": "2024-04-30",
    "customer_id": "sterlingarcher2265",
    "source_type": "Sales",
    "city": "Fremont",
    "state": "California",
    "state_code": "CA",
    "zipcode": "94539",
    "units_sold": 1,
    "order_sales": 7.41,
    "gross_sales": 19.99,
    "refund_amount": null,
    "is_canceled": false,
    "is_refunded": false,
    "is_returned": false,
    "latitude": 37.5176,
    "longitude": -121.9287
  },
  {
    "order_id": "576626336510808341",
    "reporting_date": "2024-04-30",
    "customer_id": "meggmo",
    "source_type": "Sales",
    "city": "Kearns",
    "state": "Utah",
    "state_code": "UT",
    "zipcode": "84118",
    "units_sold": 1,
    "order_sales": 14.82,
    "gross_sales": 19.99,
    "refund_amount": null,
    "is_canceled": false,
    "is_refunded": false,
    "is_returned": false,
    "latitude": 40.6504,
    "longitude": -112.0054
  },
  {
    "order_id": "576626336955601425",
    "reporting_date": "2024-04-30",
    "customer_id": "ronbennett235",
    "source_type": "Sales",
    "city": "Sebring",
    "state": "Florida",
    "state_code": "FL",
    "zipcode": "33875",
    "units_sold": 1,
    "order_sales": 9.82,
    "gross_sales": 19.99,
    "refund_amount": null,
    "is_canceled": false,
    "is_refunded": false,
    "is_returned": false,
    "latitude": 27.4676,
    "longitude": -81.4581
  },
  {
    "order_id": "576626337650676496",
    "reporting_date": "2024-04-30",
    "customer_id": "jrattblack",
    "source_type": "Sales",
    "city": "Marietta",
    "state": "Georgia",
    "state_code": "GA",
    "zipcode": "30064",
    "units_sold": 2,
    "order_sales": 29.64,
    "gross_sales": 39.98,
    "refund_amount": null,
    "is_canceled": false,
    "is_refunded": false,
    "is_returned": false,
    "latitude": 33.9343,
    "longitude": -84.6076
  },
  {
    "order_id": "576626338349355688",
    "reporting_date": "2024-04-30",
    "customer_id": "nerdstradamus_88",
    "source_type": "Sales",
    "city": "Hawthorne",
    "state": "California",
    "state_code": "CA",
    "zipcode": "90250",
    "units_sold": 1,
    "order_sales": 8.89,
    "gross_sales": 19.99,
    "refund_amount": null,
    "is_canceled": false,
    "is_refunded": false,
    "is_returned": false,
    "latitude": 33.9143,
    "longitude": -118.3493
  },
  {
    "order_id": "576626338690994990",
    "reporting_date": "2024-04-30",
    "customer_id": "han_214",
    "source_type": "Sales",
    "city": "Temple",
    "state": "Texas",
    "state_code": "TX",
    "zipcode": "76502",
    "units_sold": 1,
    "order_sales": 14.82,
    "gross_sales": 19.99,
    "refund_amount": null,
    "is_canceled": false,
    "is_refunded": false,
    "is_returned": false,
    "latitude": 31.071,
    "longitude": -97.3898
  },
  {
    "order_id": "576626339198046538",
    "reporting_date": "2024-04-30",
    "customer_id": "uhhnet93",
    "source_type": "Sales",
    "city": "Fontana",
    "state": "California",
    "state_code": "CA",
    "zipcode": "92336",
    "units_sold": 1,
    "order_sales": 14.82,
    "gross_sales": 19.99,
    "refund_amount": null,
    "is_canceled": false,
    "is_refunded": false,
    "is_returned": false,
    "latitude": 34.1173,
    "longitude": -117.4378
  },
  {
    "order_id": "576626340233908544",
    "reporting_date": "2024-04-30",
    "customer_id": "jilliankmack",
    "source_type": "Sales",
    "city": "Lauderhill",
    "state": "Florida",
    "state_code": "FL",
    "zipcode": "33351",
    "units_sold": 1,
    "order_sales": 14.82,
    "gross_sales": 19.99,
    "refund_amount": null,
    "is_canceled": false,
    "is_refunded": false,
    "is_returned": false,
    "latitude": 26.1793,
    "longitude": -80.2746
  },
  {
    "order_id": "576626340433334472",
    "reporting_date": "2024-04-30",
    "customer_id": "mobranham",
    "source_type": "Sales",
    "city": "Waddell",
    "state": "Arizona",
    "state_code": "AZ",
    "zipcode": "85355",
    "units_sold": 1,
    "order_sales": 8.15,
    "gross_sales": 19.99,
    "refund_amount": null,
    "is_canceled": false,
    "is_refunded": false,
    "is_returned": false,
    "latitude": 33.5673,
    "longitude": -112.4387
  },
  {
    "order_id": "576626340636758095",
    "reporting_date": "2024-04-30",
    "customer_id": "tllwhite",
    "source_type": "Sales",
    "city": "Claremont",
    "state": "California",
    "state_code": "CA",
    "zipcode": "91711",
    "units_sold": 1,
    "order_sales": 14.82,
    "gross_sales": 19.99,
    "refund_amount": null,
    "is_canceled": false,
    "is_refunded": false,
    "is_returned": false,
    "latitude": 34.1092,
    "longitude": -117.7183
  },
  {
    "order_id": "576626341297623847",
    "reporting_date": "2024-04-30",
    "customer_id": "ice__co1d",
    "source_type": "Sales",
    "city": "Chantilly",
    "state": "Virginia",
    "state_code": "VA",
    "zipcode": "20151",
    "units_sold": 1,
    "order_sales": 14.82,
    "gross_sales": 19.99,
    "refund_amount": null,
    "is_canceled": false,
    "is_refunded": false,
    "is_returned": false,
    "latitude": 38.8867,
    "longitude": -77.4457
  },
  {
    "order_id": "576626342059348122",
    "reporting_date": "2024-04-30",
    "customer_id": "soniamodesto6",
    "source_type": "Sales",
    "city": "Corcoran",
    "state": "California",
    "state_code": "CA",
    "zipcode": "93212",
    "units_sold": 2,
    "order_sales": 29.64,
    "gross_sales": 39.98,
    "refund_amount": null,
    "is_canceled": false,
    "is_refunded": false,
    "is_returned": false,
    "latitude": 36.0865,
    "longitude": -119.5607
  },
  {
    "order_id": "576626342972133965",
    "reporting_date": "2024-04-30",
    "customer_id": "navendano04",
    "source_type": "Sales",
    "city": "El Centro",
    "state": "California",
    "state_code": "CA",
    "zipcode": "92243",
    "units_sold": 1,
    "order_sales": 14.82,
    "gross_sales": 19.99,
    "refund_amount": null,
    "is_canceled": false,
    "is_refunded": false,
    "is_returned": false,
    "latitude": 32.7893,
    "longitude": -115.5665
  },
  {
    "order_id": "576626343055364195",
    "reporting_date": "2024-04-30",
    "customer_id": "sandrasaizterrazas",
    "source_type": "Sales",
    "city": "Uvalde",
    "state": "Texas",
    "state_code": "TX",
    "zipcode": "78801",
    "units_sold": 1,
    "order_sales": 14.82,
    "gross_sales": 19.99,
    "refund_amount": null,
    "is_canceled": false,
    "is_refunded": false,
    "is_returned": false,
    "latitude": 29.2172,
    "longitude": -99.7931
  },
  {
    "order_id": "576626344246415656",
    "reporting_date": "2024-04-30",
    "customer_id": "jayalderete",
    "source_type": "Sales",
    "city": "Antioch",
    "state": "California",
    "state_code": "CA",
    "zipcode": "94509",
    "units_sold": 1,
    "order_sales": 7.41,
    "gross_sales": 19.99,
    "refund_amount": null,
    "is_canceled": false,
    "is_refunded": false,
    "is_returned": false,
    "latitude": 37.9939,
    "longitude": -121.8089
  },
  {
    "order_id": "576626334085845706",
    "reporting_date": "2024-04-30",
    "customer_id": "cocofunlife",
    "source_type": "Sales",
    "city": "Oakland",
    "state": "California",
    "state_code": "CA",
    "zipcode": "94601",
    "units_sold": 1,
    "order_sales": 14.82,
    "gross_sales": 19.99,
    "refund_amount": null,
    "is_canceled": false,
    "is_refunded": false,
    "is_returned": false,
    "latitude": 37.7806,
    "longitude": -122.2166
  },
  {
    "order_id": "576626333279686757",
    "reporting_date": "2024-04-30",
    "customer_id": "lt42420",
    "source_type": "Sales",
    "city": "Anderson",
    "state": "South Carolina",
    "state_code": "SC",
    "zipcode": "29625",
    "units_sold": 1,
    "order_sales": 14.82,
    "gross_sales": 19.99,
    "refund_amount": null,
    "is_canceled": false,
    "is_refunded": false,
    "is_returned": false,
    "latitude": 34.5271,
    "longitude": -82.7087
  },
  {
    "order_id": "576626333127053314",
    "reporting_date": "2024-04-30",
    "customer_id": "annettecole291",
    "source_type": "Sales",
    "city": "Darwin",
    "state": "Minnesota",
    "state_code": "MN",
    "zipcode": "55324",
    "units_sold": 2,
    "order_sales": 29.64,
    "gross_sales": 39.98,
    "refund_amount": null,
    "is_canceled": false,
    "is_refunded": false,
    "is_returned": false,
    "latitude": 45.1029,
    "longitude": -94.4249
  },
  {
    "order_id": "576626329467392764",
    "reporting_date": "2024-04-30",
    "customer_id": "nerdlovecandy",
    "source_type": "Sales",
    "city": "Temecula",
    "state": "California",
    "state_code": "CA",
    "zipcode": "92592",
    "units_sold": 1,
    "order_sales": 14.82,
    "gross_sales": 19.99,
    "refund_amount": null,
    "is_canceled": false,
    "is_refunded": false,
    "is_returned": false,
    "latitude": 33.4983,
    "longitude": -117.0958
  },
  {
    "order_id": "576626327508259736",
    "reporting_date": "2024-04-30",
    "customer_id": "carmellaindiveri",
    "source_type": "Sales",
    "city": "San Jose",
    "state": "California",
    "state_code": "CA",
    "zipcode": "95124",
    "units_sold": 2,
    "order_sales": 14.82,
    "gross_sales": 39.98,
    "refund_amount": null,
    "is_canceled": false,
    "is_refunded": false,
    "is_returned": false,
    "latitude": 37.2563,
    "longitude": -121.9229
  },
  {
    "order_id": "576626410957476107",
    "reporting_date": "2024-04-30",
    "customer_id": "Tom Ormand",
    "source_type": "Sales",
    "city": "Ball Ground",
    "state": "Georgia",
    "state_code": "GA",
    "zipcode": "30107",
    "units_sold": 1,
    "order_sales": 8.89,
    "gross_sales": 19.99,
    "refund_amount": null,
    "is_canceled": false,
    "is_refunded": false,
    "is_returned": false,
    "latitude": 34.3393,
    "longitude": -84.3758
  },
  {
    "order_id": "576626327304376378",
    "reporting_date": "2024-04-30",
    "customer_id": "never2lookback",
    "source_type": "Sales",
    "city": "Menomonie",
    "state": "Wisconsin",
    "state_code": "WI",
    "zipcode": "54751",
    "units_sold": 3,
    "order_sales": 44.46,
    "gross_sales": 59.97,
    "refund_amount": null,
    "is_canceled": false,
    "is_refunded": false,
    "is_returned": false,
    "latitude": 44.8718,
    "longitude": -91.9265
  },
  {
    "order_id": "576626328825467539",
    "reporting_date": "2024-04-30",
    "customer_id": "uluvlisette",
    "source_type": "Sales",
    "city": "Henderson",
    "state": "Nevada",
    "state_code": "NV",
    "zipcode": "89052",
    "units_sold": 1,
    "order_sales": 14.82,
    "gross_sales": 19.99,
    "refund_amount": null,
    "is_canceled": false,
    "is_refunded": false,
    "is_returned": false,
    "latitude": 35.9878,
    "longitude": -115.1167
  },
  {
    "order_id": "576626329122935092",
    "reporting_date": "2024-04-30",
    "customer_id": "smooch6231",
    "source_type": "Sales",
    "city": "Odessa",
    "state": "Texas",
    "state_code": "TX",
    "zipcode": "79762",
    "units_sold": 1,
    "order_sales": 14.82,
    "gross_sales": 19.99,
    "refund_amount": null,
    "is_canceled": false,
    "is_refunded": false,
    "is_returned": false,
    "latitude": 31.889,
    "longitude": -102.3548
  },
  {
    "order_id": "576626329216062057",
    "reporting_date": "2024-04-30",
    "customer_id": "ernievalenzuela56",
    "source_type": "Sales",
    "city": "Goodhue",
    "state": "Minnesota",
    "state_code": "MN",
    "zipcode": "55027",
    "units_sold": 1,
    "order_sales": 14.82,
    "gross_sales": 19.99,
    "refund_amount": null,
    "is_canceled": false,
    "is_refunded": false,
    "is_returned": false,
    "latitude": 44.4022,
    "longitude": -92.5717
  },
  {
    "order_id": "576626329371054175",
    "reporting_date": "2024-04-30",
    "customer_id": "amanduuhplease",
    "source_type": "Sales",
    "city": "Northridge",
    "state": "California",
    "state_code": "CA",
    "zipcode": "91325",
    "units_sold": 1,
    "order_sales": 14.82,
    "gross_sales": 19.99,
    "refund_amount": null,
    "is_canceled": false,
    "is_refunded": false,
    "is_returned": false,
    "latitude": 34.2353,
    "longitude": -118.5188
  },
  {
    "order_id": "576626329395106667",
    "reporting_date": "2024-04-30",
    "customer_id": "isaguardado30",
    "source_type": "Sales",
    "city": "West Saint Paul",
    "state": "Minnesota",
    "state_code": "MN",
    "zipcode": "55118",
    "units_sold": 2,
    "order_sales": 29.64,
    "gross_sales": 39.98,
    "refund_amount": null,
    "is_canceled": false,
    "is_refunded": false,
    "is_returned": false,
    "latitude": 44.8965,
    "longitude": -93.1034
  },
  {
    "order_id": "576626330074124316",
    "reporting_date": "2024-04-30",
    "customer_id": "jodonasoy",
    "source_type": "Sales",
    "city": "Grand Prairie",
    "state": "Texas",
    "state_code": "TX",
    "zipcode": "75052",
    "units_sold": 2,
    "order_sales": 14.82,
    "gross_sales": 39.98,
    "refund_amount": null,
    "is_canceled": false,
    "is_refunded": false,
    "is_returned": false,
    "latitude": 32.6605,
    "longitude": -97.0311
  },
  {
    "order_id": "576626332995720072",
    "reporting_date": "2024-04-30",
    "customer_id": "rolainemartinez08",
    "source_type": "Sales",
    "city": "Bell Gardens",
    "state": "California",
    "state_code": "CA",
    "zipcode": "90201",
    "units_sold": 2,
    "order_sales": 39.98,
    "gross_sales": 39.98,
    "refund_amount": null,
    "is_canceled": false,
    "is_refunded": false,
    "is_returned": false,
    "latitude": 33.9653,
    "longitude": -118.1515
  },
  {
    "order_id": "576626330463212247",
    "reporting_date": "2024-04-30",
    "customer_id": "ohhkevint",
    "source_type": "Sales",
    "city": "Daniel Island",
    "state": "South Carolina",
    "state_code": "SC",
    "zipcode": "29492",
    "units_sold": 1,
    "order_sales": 14.82,
    "gross_sales": 19.99,
    "refund_amount": 15.14,
    "is_canceled": false,
    "is_refunded": true,
    "is_returned": true,
    "latitude": 32.9668,
    "longitude": -79.8528
  },
  {
    "order_id": "576626330972492215",
    "reporting_date": "2024-04-30",
    "customer_id": "user_28375",
    "source_type": "Sales",
    "city": "Temple City",
    "state": "California",
    "state_code": "CA",
    "zipcode": "91780",
    "units_sold": 1,
    "order_sales": 14.82,
    "gross_sales": 19.99,
    "refund_amount": null,
    "is_canceled": false,
    "is_refunded": false,
    "is_returned": false,
    "latitude": 34.1016,
    "longitude": -118.0537
  },
  {
    "order_id": "576626331194855603",
    "reporting_date": "2024-04-30",
    "customer_id": "liquidsasquatch",
    "source_type": "Sales",
    "city": "Cincinnati",
    "state": "Ohio",
    "state_code": "OH",
    "zipcode": "45206",
    "units_sold": 2,
    "order_sales": 29.64,
    "gross_sales": 39.98,
    "refund_amount": null,
    "is_canceled": false,
    "is_refunded": false,
    "is_returned": false,
    "latitude": 39.1269,
    "longitude": -84.4853
  },
  {
    "order_id": "576626331466698988",
    "reporting_date": "2024-04-30",
    "customer_id": "nana27grands",
    "source_type": "Sales",
    "city": "Houston",
    "state": "Texas",
    "state_code": "TX",
    "zipcode": "77095",
    "units_sold": 2,
    "order_sales": 29.64,
    "gross_sales": 39.98,
    "refund_amount": null,
    "is_canceled": false,
    "is_refunded": false,
    "is_returned": false,
    "latitude": 29.8941,
    "longitude": -95.6481
  },
  {
    "order_id": "576626331501695594",
    "reporting_date": "2024-04-30",
    "customer_id": "henryhenry886_",
    "source_type": "Sales",
    "city": "Mount Pleasant",
    "state": "Wisconsin",
    "state_code": "WI",
    "zipcode": "53406",
    "units_sold": 1,
    "order_sales": 14.82,
    "gross_sales": 19.99,
    "refund_amount": null,
    "is_canceled": false,
    "is_refunded": false,
    "is_returned": false,
    "latitude": 42.7242,
    "longitude": -87.8551
  },
  {
    "order_id": "576626331721568393",
    "reporting_date": "2024-04-30",
    "customer_id": "ckenefick",
    "source_type": "Sales",
    "city": "Temecula",
    "state": "California",
    "state_code": "CA",
    "zipcode": "92592",
    "units_sold": 1,
    "order_sales": 14.82,
    "gross_sales": 19.99,
    "refund_amount": null,
    "is_canceled": false,
    "is_refunded": false,
    "is_returned": false,
    "latitude": 33.4983,
    "longitude": -117.0958
  },
  {
    "order_id": "576626331963592971",
    "reporting_date": "2024-04-30",
    "customer_id": "santoyo01",
    "source_type": "Sales",
    "city": "Pacific",
    "state": "Washington",
    "state_code": "WA",
    "zipcode": "98047",
    "units_sold": 1,
    "order_sales": 14.82,
    "gross_sales": 19.99,
    "refund_amount": null,
    "is_canceled": false,
    "is_refunded": false,
    "is_returned": false,
    "latitude": 47.2666,
    "longitude": -122.2435
  },
  {
    "order_id": "576626332065173677",
    "reporting_date": "2024-04-30",
    "customer_id": "jstokesrn",
    "source_type": "Sales",
    "city": "Hopkinsville",
    "state": "Kentucky",
    "state_code": "KY",
    "zipcode": "42240",
    "units_sold": 1,
    "order_sales": 14.82,
    "gross_sales": 19.99,
    "refund_amount": null,
    "is_canceled": false,
    "is_refunded": false,
    "is_returned": false,
    "latitude": 36.8621,
    "longitude": -87.4851
  },
  {
    "order_id": "576626344523895396",
    "reporting_date": "2024-04-30",
    "customer_id": "withtherain",
    "source_type": "Sales",
    "city": "Shoreline",
    "state": "Washington",
    "state_code": "WA",
    "zipcode": "98155",
    "units_sold": 1,
    "order_sales": 14.82,
    "gross_sales": 19.99,
    "refund_amount": null,
    "is_canceled": false,
    "is_refunded": false,
    "is_returned": false,
    "latitude": 47.7559,
    "longitude": -122.3003
  },
  {
    "order_id": "576626344709623837",
    "reporting_date": "2024-04-30",
    "customer_id": "honeywelljr_",
    "source_type": "Sales",
    "city": "Liberty",
    "state": "Missouri",
    "state_code": "MO",
    "zipcode": "64068",
    "units_sold": 1,
    "order_sales": 14.82,
    "gross_sales": 19.99,
    "refund_amount": null,
    "is_canceled": false,
    "is_refunded": false,
    "is_returned": false,
    "latitude": 39.2461,
    "longitude": -94.4191
  },
  {
    "order_id": "576626345140589456",
    "reporting_date": "2024-04-30",
    "customer_id": "slerman69",
    "source_type": "Sales",
    "city": "Red Cloud",
    "state": "Nebraska",
    "state_code": "NE",
    "zipcode": "68970",
    "units_sold": 1,
    "order_sales": 14.82,
    "gross_sales": 19.99,
    "refund_amount": null,
    "is_canceled": false,
    "is_refunded": false,
    "is_returned": false,
    "latitude": 40.0952,
    "longitude": -98.5187
  },
  {
    "order_id": "576626357094093229",
    "reporting_date": "2024-04-30",
    "customer_id": "mrjmont",
    "source_type": "Sales",
    "city": "Mill Creek",
    "state": "Washington",
    "state_code": "WA",
    "zipcode": "98012",
    "units_sold": 1,
    "order_sales": 14.82,
    "gross_sales": 19.99,
    "refund_amount": null,
    "is_canceled": false,
    "is_refunded": false,
    "is_returned": false,
    "latitude": 47.8401,
    "longitude": -122.1972
  },
  {
    "order_id": "576626353327477324",
    "reporting_date": "2024-04-30",
    "customer_id": "vernatoya",
    "source_type": "Sales",
    "city": "Albuquerque",
    "state": "New Mexico",
    "state_code": "NM",
    "zipcode": "87120",
    "units_sold": 1,
    "order_sales": 14.82,
    "gross_sales": 19.99,
    "refund_amount": null,
    "is_canceled": false,
    "is_refunded": false,
    "is_returned": false,
    "latitude": 35.1421,
    "longitude": -106.7041
  },
  {
    "order_id": "576626353354478453",
    "reporting_date": "2024-04-30",
    "customer_id": "jrez11",
    "source_type": "Sales",
    "city": "Fresno",
    "state": "California",
    "state_code": "CA",
    "zipcode": "93710",
    "units_sold": 1,
    "order_sales": 14.82,
    "gross_sales": 19.99,
    "refund_amount": null,
    "is_canceled": false,
    "is_refunded": false,
    "is_returned": false,
    "latitude": 36.8236,
    "longitude": -119.7621
  },
  {
    "order_id": "576626354496836578",
    "reporting_date": "2024-04-30",
    "customer_id": "bruno313131",
    "source_type": "Sales",
    "city": "*******",
    "state": "Tennessee",
    "state_code": "TN",
    "zipcode": "",
    "units_sold": 2,
    "order_sales": 29.64,
    "gross_sales": 39.98,
    "refund_amount": 31.64,
    "is_canceled": true,
    "is_refunded": true,
    "is_returned": true,
    "latitude": null,
    "longitude": null
  },
  {
    "order_id": "576626355031478558",
    "reporting_date": "2024-04-30",
    "customer_id": "isaxo3_",
    "source_type": "Sales",
    "city": "Fairfield",
    "state": "California",
    "state_code": "CA",
    "zipcode": "94533",
    "units_sold": 2,
    "order_sales": 29.64,
    "gross_sales": 39.98,
    "refund_amount": null,
    "is_canceled": false,
    "is_refunded": false,
    "is_returned": false,
    "latitude": 38.2671,
    "longitude": -122.0357
  },
  {
    "order_id": "576626355425087647",
    "reporting_date": "2024-04-30",
    "customer_id": "elmontecargas",
    "source_type": "Sales",
    "city": "North Las Vegas",
    "state": "Nevada",
    "state_code": "NV",
    "zipcode": "89081",
    "units_sold": 1,
    "order_sales": 14.82,
    "gross_sales": 19.99,
    "refund_amount": null,
    "is_canceled": false,
    "is_refunded": false,
    "is_returned": false,
    "latitude": 36.2583,
    "longitude": -115.1068
  },
  {
    "order_id": "576626355652366502",
    "reporting_date": "2024-04-30",
    "customer_id": "mikegilmore08",
    "source_type": "Sales",
    "city": "Rotterdam",
    "state": "New York",
    "state_code": "NY",
    "zipcode": "12306",
    "units_sold": 1,
    "order_sales": 14.82,
    "gross_sales": 19.99,
    "refund_amount": null,
    "is_canceled": false,
    "is_refunded": false,
    "is_returned": false,
    "latitude": 42.7904,
    "longitude": -73.9809
  },
  {
    "order_id": "576626356293898644",
    "reporting_date": "2024-04-30",
    "customer_id": "sspaceoddity805",
    "source_type": "Sales",
    "city": "Henderson",
    "state": "Nevada",
    "state_code": "NV",
    "zipcode": "89052",
    "units_sold": 1,
    "order_sales": 14.82,
    "gross_sales": 19.99,
    "refund_amount": null,
    "is_canceled": false,
    "is_refunded": false,
    "is_returned": false,
    "latitude": 35.9878,
    "longitude": -115.1167
  },
  {
    "order_id": "576626356468487001",
    "reporting_date": "2024-04-30",
    "customer_id": "lnwdkdd",
    "source_type": "Sales",
    "city": "*************",
    "state": "California",
    "state_code": "CA",
    "zipcode": "",
    "units_sold": 2,
    "order_sales": 29.64,
    "gross_sales": 39.98,
    "refund_amount": 29.64,
    "is_canceled": true,
    "is_refunded": true,
    "is_returned": true,
    "latitude": null,
    "longitude": null
  },
  {
    "order_id": "576626357331006297",
    "reporting_date": "2024-04-30",
    "customer_id": "lnwdkdd",
    "source_type": "Sales",
    "city": "Lynwood",
    "state": "California",
    "state_code": "CA",
    "zipcode": "90262",
    "units_sold": 2,
    "order_sales": 29.64,
    "gross_sales": 39.98,
    "refund_amount": null,
    "is_canceled": false,
    "is_refunded": false,
    "is_returned": false,
    "latitude": 33.9241,
    "longitude": -118.2013
  },
  {
    "order_id": "576626352636728128",
    "reporting_date": "2024-04-30",
    "customer_id": "lil_ginger12",
    "source_type": "Sales",
    "city": "Gilbert",
    "state": "Arizona",
    "state_code": "AZ",
    "zipcode": "85296",
    "units_sold": 1,
    "order_sales": 14.82,
    "gross_sales": 19.99,
    "refund_amount": null,
    "is_canceled": false,
    "is_refunded": false,
    "is_returned": false,
    "latitude": 33.3354,
    "longitude": -111.7406
  },
  {
    "order_id": "576626357973128012",
    "reporting_date": "2024-04-30",
    "customer_id": "richmonreal",
    "source_type": "Sales",
    "city": "Mesa",
    "state": "Arizona",
    "state_code": "AZ",
    "zipcode": "85204",
    "units_sold": 2,
    "order_sales": 29.64,
    "gross_sales": 39.98,
    "refund_amount": null,
    "is_canceled": false,
    "is_refunded": false,
    "is_returned": false,
    "latitude": 33.3992,
    "longitude": -111.7896
  },
  {
    "order_id": "576626358359134803",
    "reporting_date": "2024-04-30",
    "customer_id": "jdamommy",
    "source_type": "Sales",
    "city": "Luling",
    "state": "Texas",
    "state_code": "TX",
    "zipcode": "78648",
    "units_sold": 2,
    "order_sales": 29.64,
    "gross_sales": 39.98,
    "refund_amount": null,
    "is_canceled": false,
    "is_refunded": false,
    "is_returned": false,
    "latitude": 29.6826,
    "longitude": -97.6499
  },
  {
    "order_id": "576626359013839218",
    "reporting_date": "2024-04-30",
    "customer_id": "little_fya",
    "source_type": "Sales",
    "city": "Mint Hill",
    "state": "North Carolina",
    "state_code": "NC",
    "zipcode": "28227",
    "units_sold": 3,
    "order_sales": 33.36,
    "gross_sales": 59.97,
    "refund_amount": null,
    "is_canceled": false,
    "is_refunded": false,
    "is_returned": false,
    "latitude": 35.1936,
    "longitude": -80.6846
  },
  {
    "order_id": "576626359571419694",
    "reporting_date": "2024-04-30",
    "customer_id": "clearlypolished",
    "source_type": "Sales",
    "city": "Parker",
    "state": "Colorado",
    "state_code": "CO",
    "zipcode": "80134",
    "units_sold": 1,
    "order_sales": 14.82,
    "gross_sales": 19.99,
    "refund_amount": null,
    "is_canceled": false,
    "is_refunded": false,
    "is_returned": false,
    "latitude": 39.4895,
    "longitude": -104.8447
  },
  {
    "order_id": "576626359960113190",
    "reporting_date": "2024-04-30",
    "customer_id": "dymdtpmd47e7",
    "source_type": "Sales",
    "city": "Valdosta",
    "state": "Georgia",
    "state_code": "GA",
    "zipcode": "31602",
    "units_sold": 4,
    "order_sales": 59.28,
    "gross_sales": 79.96,
    "refund_amount": null,
    "is_canceled": false,
    "is_refunded": false,
    "is_returned": false,
    "latitude": 30.8931,
    "longitude": -83.3278
  },
  {
    "order_id": "576626361167287090",
    "reporting_date": "2024-04-30",
    "customer_id": "tortillaear",
    "source_type": "Sales",
    "city": "Commerce City",
    "state": "Colorado",
    "state_code": "CO",
    "zipcode": "80022",
    "units_sold": 2,
    "order_sales": 29.64,
    "gross_sales": 39.98,
    "refund_amount": null,
    "is_canceled": false,
    "is_refunded": false,
    "is_returned": false,
    "latitude": 39.8259,
    "longitude": -104.9113
  },
  {
    "order_id": "576626362741723234",
    "reporting_date": "2024-04-30",
    "customer_id": "scottt_716",
    "source_type": "Sales",
    "city": "Orchard Park",
    "state": "New York",
    "state_code": "NY",
    "zipcode": "14127",
    "units_sold": 1,
    "order_sales": 14.82,
    "gross_sales": 19.99,
    "refund_amount": null,
    "is_canceled": false,
    "is_refunded": false,
    "is_returned": false,
    "latitude": 42.7639,
    "longitude": -78.7518
  },
  {
    "order_id": "576626363681575698",
    "reporting_date": "2024-04-30",
    "customer_id": "tiffanysaric",
    "source_type": "Sales",
    "city": "Mountain Home",
    "state": "Arkansas",
    "state_code": "AR",
    "zipcode": "72653",
    "units_sold": 1,
    "order_sales": 14.82,
    "gross_sales": 19.99,
    "refund_amount": null,
    "is_canceled": false,
    "is_refunded": false,
    "is_returned": false,
    "latitude": 36.3312,
    "longitude": -92.3753
  },
  {
    "order_id": "576626352651211264",
    "reporting_date": "2024-04-30",
    "customer_id": "jackienm04",
    "source_type": "Sales",
    "city": "Indio",
    "state": "California",
    "state_code": "CA",
    "zipcode": "92203",
    "units_sold": 1,
    "order_sales": 14.82,
    "gross_sales": 19.99,
    "refund_amount": null,
    "is_canceled": false,
    "is_refunded": false,
    "is_returned": false,
    "latitude": 33.7532,
    "longitude": -116.2676
  },
  {
    "order_id": "576626352326414853",
    "reporting_date": "2024-04-30",
    "customer_id": "hunterhebeler",
    "source_type": "Sales",
    "city": "Erie",
    "state": "Illinois",
    "state_code": "IL",
    "zipcode": "61250",
    "units_sold": 1,
    "order_sales": 14.82,
    "gross_sales": 19.99,
    "refund_amount": null,
    "is_canceled": false,
    "is_refunded": false,
    "is_returned": false,
    "latitude": 41.656,
    "longitude": -90.0843
  },
  {
    "order_id": "576626345552941667",
    "reporting_date": "2024-04-30",
    "customer_id": "hifiblu",
    "source_type": "Sales",
    "city": "Manteca",
    "state": "California",
    "state_code": "CA",
    "zipcode": "95337",
    "units_sold": 1,
    "order_sales": 14.82,
    "gross_sales": 19.99,
    "refund_amount": null,
    "is_canceled": false,
    "is_refunded": false,
    "is_returned": false,
    "latitude": 37.7808,
    "longitude": -121.2344
  },
  {
    "order_id": "576626349004525784",
    "reporting_date": "2024-04-30",
    "customer_id": "tracycalbert",
    "source_type": "Sales",
    "city": "Angleton",
    "state": "Texas",
    "state_code": "TX",
    "zipcode": "77515",
    "units_sold": 1,
    "order_sales": 14.82,
    "gross_sales": 19.99,
    "refund_amount": null,
    "is_canceled": false,
    "is_refunded": false,
    "is_returned": false,
    "latitude": 29.181,
    "longitude": -95.4467
  },
  {
    "order_id": "576626345919353142",
    "reporting_date": "2024-04-30",
    "customer_id": "condalmoses",
    "source_type": "Sales",
    "city": "********",
    "state": "New York",
    "state_code": "NY",
    "zipcode": "",
    "units_sold": 4,
    "order_sales": 44.48,
    "gross_sales": 79.96,
    "refund_amount": 44.48,
    "is_canceled": true,
    "is_refunded": true,
    "is_returned": true,
    "latitude": null,
    "longitude": null
  },
  {
    "order_id": "576626346148205172",
    "reporting_date": "2024-04-30",
    "customer_id": "dawnreneeerrerawehrum",
    "source_type": "Sales",
    "city": "Orlando",
    "state": "Florida",
    "state_code": "FL",
    "zipcode": "32814",
    "units_sold": 1,
    "order_sales": 9.82,
    "gross_sales": 19.99,
    "refund_amount": null,
    "is_canceled": false,
    "is_refunded": false,
    "is_returned": false,
    "latitude": 28.5702,
    "longitude": -81.3265
  },
  {
    "order_id": "576626346508325502",
    "reporting_date": "2024-04-30",
    "customer_id": "mytribe07",
    "source_type": "Sales",
    "city": "Colorado Springs",
    "state": "Colorado",
    "state_code": "CO",
    "zipcode": "80918",
    "units_sold": 1,
    "order_sales": 14.82,
    "gross_sales": 19.99,
    "refund_amount": null,
    "is_canceled": false,
    "is_refunded": false,
    "is_returned": false,
    "latitude": 38.9129,
    "longitude": -104.7734
  },
  {
    "order_id": "576626346768961627",
    "reporting_date": "2024-04-30",
    "customer_id": "bensonwong905",
    "source_type": "Sales",
    "city": "San Leandro",
    "state": "California",
    "state_code": "CA",
    "zipcode": "94577",
    "units_sold": 1,
    "order_sales": 14.82,
    "gross_sales": 19.99,
    "refund_amount": null,
    "is_canceled": false,
    "is_refunded": false,
    "is_returned": false,
    "latitude": 37.7205,
    "longitude": -122.1587
  },
  {
    "order_id": "576626347416785260",
    "reporting_date": "2024-04-30",
    "customer_id": "sorrydogg",
    "source_type": "Sales",
    "city": "Stockton",
    "state": "California",
    "state_code": "CA",
    "zipcode": "95210",
    "units_sold": 3,
    "order_sales": 44.46,
    "gross_sales": 59.97,
    "refund_amount": null,
    "is_canceled": false,
    "is_refunded": false,
    "is_returned": false,
    "latitude": 38.025,
    "longitude": -121.2972
  },
  {
    "order_id": "576626347651731792",
    "reporting_date": "2024-04-30",
    "customer_id": "70lilblue",
    "source_type": "Sales",
    "city": "Sparks",
    "state": "Nevada",
    "state_code": "NV",
    "zipcode": "89436",
    "units_sold": 1,
    "order_sales": 14.82,
    "gross_sales": 19.99,
    "refund_amount": null,
    "is_canceled": false,
    "is_refunded": false,
    "is_returned": false,
    "latitude": 39.6269,
    "longitude": -119.7081
  },
  {
    "order_id": "576626348255121599",
    "reporting_date": "2024-04-30",
    "customer_id": "funny_girl_mac",
    "source_type": "Sales",
    "city": "Denair",
    "state": "California",
    "state_code": "CA",
    "zipcode": "95316",
    "units_sold": 1,
    "order_sales": 14.82,
    "gross_sales": 19.99,
    "refund_amount": null,
    "is_canceled": false,
    "is_refunded": false,
    "is_returned": false,
    "latitude": 37.539,
    "longitude": -120.7758
  },
  {
    "order_id": "576626348463853949",
    "reporting_date": "2024-04-30",
    "customer_id": "meganeubank",
    "source_type": "Sales",
    "city": "Palmer",
    "state": "Alaska",
    "state_code": "AK",
    "zipcode": "99645",
    "units_sold": 1,
    "order_sales": 14.82,
    "gross_sales": 19.99,
    "refund_amount": null,
    "is_canceled": false,
    "is_refunded": false,
    "is_returned": false,
    "latitude": 61.6303,
    "longitude": -148.9872
  },
  {
    "order_id": "576626349083038158",
    "reporting_date": "2024-04-30",
    "customer_id": "noemihernandez515",
    "source_type": "Sales",
    "city": "Fort Worth",
    "state": "Texas",
    "state_code": "TX",
    "zipcode": "76135",
    "units_sold": 2,
    "order_sales": 29.64,
    "gross_sales": 39.98,
    "refund_amount": null,
    "is_canceled": false,
    "is_refunded": false,
    "is_returned": false,
    "latitude": 32.8248,
    "longitude": -97.4519
  },
  {
    "order_id": "576626352233615660",
    "reporting_date": "2024-04-30",
    "customer_id": "josiegambale",
    "source_type": "Sales",
    "city": "Atco",
    "state": "New Jersey",
    "state_code": "NJ",
    "zipcode": "08004",
    "units_sold": 3,
    "order_sales": 44.46,
    "gross_sales": 59.97,
    "refund_amount": null,
    "is_canceled": false,
    "is_refunded": false,
    "is_returned": false,
    "latitude": 39.76,
    "longitude": -74.8665
  },
  {
    "order_id": "576626349477368419",
    "reporting_date": "2024-04-30",
    "customer_id": "davidgrigg266",
    "source_type": "Sales",
    "city": "Bedford",
    "state": "Virginia",
    "state_code": "VA",
    "zipcode": "24523",
    "units_sold": 1,
    "order_sales": 14.82,
    "gross_sales": 19.99,
    "refund_amount": null,
    "is_canceled": false,
    "is_refunded": false,
    "is_returned": false,
    "latitude": 37.3153,
    "longitude": -79.5331
  },
  {
    "order_id": "576626349583012182",
    "reporting_date": "2024-04-30",
    "customer_id": "candystutzman5",
    "source_type": "Sales",
    "city": "Wichita",
    "state": "Kansas",
    "state_code": "KS",
    "zipcode": "67205",
    "units_sold": 1,
    "order_sales": 14.82,
    "gross_sales": 19.99,
    "refund_amount": null,
    "is_canceled": false,
    "is_refunded": false,
    "is_returned": false,
    "latitude": 37.7639,
    "longitude": -97.4269
  },
  {
    "order_id": "576626350896288203",
    "reporting_date": "2024-04-30",
    "customer_id": "westcoastseanettles",
    "source_type": "Sales",
    "city": "San Francisco",
    "state": "California",
    "state_code": "CA",
    "zipcode": "94110",
    "units_sold": 1,
    "order_sales": 14.82,
    "gross_sales": 19.99,
    "refund_amount": null,
    "is_canceled": false,
    "is_refunded": false,
    "is_returned": false,
    "latitude": 37.7509,
    "longitude": -122.4153
  },
  {
    "order_id": "576626351014646343",
    "reporting_date": "2024-04-30",
    "customer_id": "lewmama05",
    "source_type": "Sales",
    "city": "Elk Grove",
    "state": "California",
    "state_code": "CA",
    "zipcode": "95624",
    "units_sold": 1,
    "order_sales": 14.82,
    "gross_sales": 19.99,
    "refund_amount": null,
    "is_canceled": false,
    "is_refunded": false,
    "is_returned": false,
    "latitude": 38.4232,
    "longitude": -121.3599
  },
  {
    "order_id": "576626351238124224",
    "reporting_date": "2024-04-30",
    "customer_id": "mari010419",
    "source_type": "Sales",
    "city": "Santa Maria",
    "state": "California",
    "state_code": "CA",
    "zipcode": "93458",
    "units_sold": 1,
    "order_sales": 14.82,
    "gross_sales": 19.99,
    "refund_amount": null,
    "is_canceled": false,
    "is_refunded": false,
    "is_returned": false,
    "latitude": 34.9535,
    "longitude": -120.4957
  },
  {
    "order_id": "576626351317684990",
    "reporting_date": "2024-04-30",
    "customer_id": "marykilligrew",
    "source_type": "Sales",
    "city": "Yakima",
    "state": "Washington",
    "state_code": "WA",
    "zipcode": "98902",
    "units_sold": 2,
    "order_sales": 29.64,
    "gross_sales": 39.98,
    "refund_amount": null,
    "is_canceled": false,
    "is_refunded": false,
    "is_returned": false,
    "latitude": 46.5934,
    "longitude": -120.5311
  },
  {
    "order_id": "576626352029405701",
    "reporting_date": "2024-04-30",
    "customer_id": "23_____________93",
    "source_type": "Sales",
    "city": "Baldwin Park",
    "state": "California",
    "state_code": "CA",
    "zipcode": "91706",
    "units_sold": 3,
    "order_sales": 44.46,
    "gross_sales": 59.97,
    "refund_amount": null,
    "is_canceled": false,
    "is_refunded": false,
    "is_returned": false,
    "latitude": 34.0964,
    "longitude": -117.9682
  },
  {
    "order_id": "576626352152744815",
    "reporting_date": "2024-04-30",
    "customer_id": "katielynnstall",
    "source_type": "Sales",
    "city": "Bartow",
    "state": "Florida",
    "state_code": "FL",
    "zipcode": "33830",
    "units_sold": 1,
    "order_sales": 14.82,
    "gross_sales": 19.99,
    "refund_amount": null,
    "is_canceled": false,
    "is_refunded": false,
    "is_returned": false,
    "latitude": 27.8957,
    "longitude": -81.8127
  },
  {
    "order_id": "576626410799469552",
    "reporting_date": "2024-04-30",
    "customer_id": "bosskalione",
    "source_type": "Sales",
    "city": "Sacramento",
    "state": "California",
    "state_code": "CA",
    "zipcode": "95822",
    "units_sold": 1,
    "order_sales": 14.82,
    "gross_sales": 19.99,
    "refund_amount": null,
    "is_canceled": false,
    "is_refunded": false,
    "is_returned": false,
    "latitude": 38.5091,
    "longitude": -121.4935
  },
  {
    "order_id": "576626484489917203",
    "reporting_date": "2024-04-30",
    "customer_id": "friedpickles765",
    "source_type": "Sales",
    "city": "Hagerstown",
    "state": "Maryland",
    "state_code": "MD",
    "zipcode": "21740",
    "units_sold": 1,
    "order_sales": 14.82,
    "gross_sales": 19.99,
    "refund_amount": null,
    "is_canceled": false,
    "is_refunded": false,
    "is_returned": false,
    "latitude": 39.632,
    "longitude": -77.7372
  },
  {
    "order_id": "576626411809772138",
    "reporting_date": "2024-04-30",
    "customer_id": "helenrandall125",
    "source_type": "Sales",
    "city": "Salem",
    "state": "New Jersey",
    "state_code": "NJ",
    "zipcode": "08079",
    "units_sold": 1,
    "order_sales": 14.82,
    "gross_sales": 19.99,
    "refund_amount": null,
    "is_canceled": false,
    "is_refunded": false,
    "is_returned": false,
    "latitude": 39.5591,
    "longitude": -75.4521
  },
  {
    "order_id": "576626470284202738",
    "reporting_date": "2024-04-30",
    "customer_id": "nancypullin",
    "source_type": "Sales",
    "city": "Newport",
    "state": "Washington",
    "state_code": "WA",
    "zipcode": "99156",
    "units_sold": 2,
    "order_sales": 29.64,
    "gross_sales": 39.98,
    "refund_amount": null,
    "is_canceled": false,
    "is_refunded": false,
    "is_returned": false,
    "latitude": 48.1695,
    "longitude": -117.1508
  },
  {
    "order_id": "576626462865789914",
    "reporting_date": "2024-04-30",
    "customer_id": "sur_shaw",
    "source_type": "Sales",
    "city": "Eagle Point",
    "state": "Oregon",
    "state_code": "OR",
    "zipcode": "97524",
    "units_sold": 1,
    "order_sales": 14.82,
    "gross_sales": 19.99,
    "refund_amount": null,
    "is_canceled": false,
    "is_refunded": false,
    "is_returned": false,
    "latitude": 42.4935,
    "longitude": -122.8088
  },
  {
    "order_id": "576626464157110279",
    "reporting_date": "2024-04-30",
    "customer_id": "papamarshall1914",
    "source_type": "Sales",
    "city": "Jeffersonville",
    "state": "Indiana",
    "state_code": "IN",
    "zipcode": "47130",
    "units_sold": 1,
    "order_sales": 14.82,
    "gross_sales": 19.99,
    "refund_amount": null,
    "is_canceled": false,
    "is_refunded": false,
    "is_returned": false,
    "latitude": 38.3078,
    "longitude": -85.7359
  },
  {
    "order_id": "576626464157504416",
    "reporting_date": "2024-04-30",
    "customer_id": "isaiahmorsching",
    "source_type": "Sales",
    "city": "Cleveland",
    "state": "Minnesota",
    "state_code": "MN",
    "zipcode": "56017",
    "units_sold": 2,
    "order_sales": 17.78,
    "gross_sales": 39.98,
    "refund_amount": null,
    "is_canceled": false,
    "is_refunded": false,
    "is_returned": false,
    "latitude": 44.3201,
    "longitude": -93.8286
  },
  {
    "order_id": "576626464490951199",
    "reporting_date": "2024-04-30",
    "customer_id": "puppustorm",
    "source_type": "Sales",
    "city": "Everett",
    "state": "Washington",
    "state_code": "WA",
    "zipcode": "98208",
    "units_sold": 2,
    "order_sales": 14.82,
    "gross_sales": 39.98,
    "refund_amount": null,
    "is_canceled": false,
    "is_refunded": false,
    "is_returned": false,
    "latitude": 47.8948,
    "longitude": -122.1987
  },
  {
    "order_id": "576626465375948904",
    "reporting_date": "2024-04-30",
    "customer_id": "Abelina Carriedo",
    "source_type": "Sales",
    "city": "Bakersfield",
    "state": "California",
    "state_code": "CA",
    "zipcode": "93306",
    "units_sold": 1,
    "order_sales": 14.82,
    "gross_sales": 19.99,
    "refund_amount": null,
    "is_canceled": false,
    "is_refunded": false,
    "is_returned": false,
    "latitude": 35.3867,
    "longitude": -118.9391
  },
  {
    "order_id": "576626465524781266",
    "reporting_date": "2024-04-30",
    "customer_id": "nikilovesfrenchies",
    "source_type": "Sales",
    "city": "Gresham",
    "state": "Oregon",
    "state_code": "OR",
    "zipcode": "97080",
    "units_sold": 3,
    "order_sales": 33.36,
    "gross_sales": 59.97,
    "refund_amount": null,
    "is_canceled": false,
    "is_refunded": false,
    "is_returned": false,
    "latitude": 45.4817,
    "longitude": -122.4156
  },
  {
    "order_id": "576626465858229026",
    "reporting_date": "2024-04-30",
    "customer_id": "christyjcox",
    "source_type": "Sales",
    "city": "Los Angeles",
    "state": "California",
    "state_code": "CA",
    "zipcode": "90008",
    "units_sold": 1,
    "order_sales": 14.82,
    "gross_sales": 19.99,
    "refund_amount": null,
    "is_canceled": false,
    "is_refunded": false,
    "is_returned": false,
    "latitude": 34.0116,
    "longitude": -118.3411
  },
  {
    "order_id": "576626465932743114",
    "reporting_date": "2024-04-30",
    "customer_id": "officialbobram",
    "source_type": "Sales",
    "city": "San Antonio",
    "state": "Texas",
    "state_code": "TX",
    "zipcode": "78238",
    "units_sold": 1,
    "order_sales": 14.82,
    "gross_sales": 19.99,
    "refund_amount": null,
    "is_canceled": false,
    "is_refunded": false,
    "is_returned": false,
    "latitude": 29.451,
    "longitude": -98.6169
  },
  {
    "order_id": "576626466049004405",
    "reporting_date": "2024-04-30",
    "customer_id": "cristinabarragandosal",
    "source_type": "Sales",
    "city": "Cohutta",
    "state": "Georgia",
    "state_code": "GA",
    "zipcode": "30710",
    "units_sold": 2,
    "order_sales": 29.64,
    "gross_sales": 39.98,
    "refund_amount": null,
    "is_canceled": false,
    "is_refunded": false,
    "is_returned": false,
    "latitude": 34.9326,
    "longitude": -84.9458
  },
  {
    "order_id": "576626466729398536",
    "reporting_date": "2024-04-30",
    "customer_id": "jimjml",
    "source_type": "Sales",
    "city": "New Milford",
    "state": "Connecticut",
    "state_code": "CT",
    "zipcode": "06776",
    "units_sold": 1,
    "order_sales": 14.82,
    "gross_sales": 19.99,
    "refund_amount": null,
    "is_canceled": false,
    "is_refunded": false,
    "is_returned": false,
    "latitude": 41.5817,
    "longitude": -73.4128
  },
  {
    "order_id": "576626466765508938",
    "reporting_date": "2024-04-30",
    "customer_id": "pauljf1211",
    "source_type": "Sales",
    "city": "Geneva",
    "state": "Nebraska",
    "state_code": "NE",
    "zipcode": "68361",
    "units_sold": 1,
    "order_sales": 11.12,
    "gross_sales": 19.99,
    "refund_amount": null,
    "is_canceled": false,
    "is_refunded": false,
    "is_returned": false,
    "latitude": 40.5277,
    "longitude": -97.6096
  },
  {
    "order_id": "576626466798080498",
    "reporting_date": "2024-04-30",
    "customer_id": "tracyharvey69",
    "source_type": "Sales",
    "city": "Beloit",
    "state": "Wisconsin",
    "state_code": "WI",
    "zipcode": "53511",
    "units_sold": 2,
    "order_sales": 29.64,
    "gross_sales": 39.98,
    "refund_amount": null,
    "is_canceled": false,
    "is_refunded": false,
    "is_returned": false,
    "latitude": 42.562,
    "longitude": -89.086
  },
  {
    "order_id": "576626466919387372",
    "reporting_date": "2024-04-30",
    "customer_id": "moniqueperalez",
    "source_type": "Sales",
    "city": "Chino Hills",
    "state": "California",
    "state_code": "CA",
    "zipcode": "91709",
    "units_sold": 1,
    "order_sales": 14.82,
    "gross_sales": 19.99,
    "refund_amount": null,
    "is_canceled": false,
    "is_refunded": false,
    "is_returned": false,
    "latitude": 33.9797,
    "longitude": -117.7308
  },
  {
    "order_id": "576626467104264626",
    "reporting_date": "2024-04-30",
    "customer_id": "sweetmamacat13",
    "source_type": "Sales",
    "city": "Prior Lake",
    "state": "Minnesota",
    "state_code": "MN",
    "zipcode": "55372",
    "units_sold": 1,
    "order_sales": 14.82,
    "gross_sales": 19.99,
    "refund_amount": null,
    "is_canceled": false,
    "is_refunded": false,
    "is_returned": false,
    "latitude": 44.7107,
    "longitude": -93.4101
  },
  {
    "order_id": "576626467162001674",
    "reporting_date": "2024-04-30",
    "customer_id": "kleejobe",
    "source_type": "Sales",
    "city": "Ponderay",
    "state": "Idaho",
    "state_code": "ID",
    "zipcode": "83852",
    "units_sold": 1,
    "order_sales": 14.82,
    "gross_sales": 19.99,
    "refund_amount": null,
    "is_canceled": false,
    "is_refunded": false,
    "is_returned": false,
    "latitude": 48.3055,
    "longitude": -116.5338
  },
  {
    "order_id": "576626467930477298",
    "reporting_date": "2024-04-30",
    "customer_id": "nancypullin",
    "source_type": "Sales",
    "city": "Newport",
    "state": "Washington",
    "state_code": "WA",
    "zipcode": "99156",
    "units_sold": 1,
    "order_sales": 14.82,
    "gross_sales": 19.99,
    "refund_amount": null,
    "is_canceled": false,
    "is_refunded": false,
    "is_returned": false,
    "latitude": 48.1695,
    "longitude": -117.1508
  },
  {
    "order_id": "576626468229714706",
    "reporting_date": "2024-04-30",
    "customer_id": "thisduderighthur",
    "source_type": "Sales",
    "city": "Natchitoches",
    "state": "Louisiana",
    "state_code": "LA",
    "zipcode": "71457",
    "units_sold": 1,
    "order_sales": 14.82,
    "gross_sales": 19.99,
    "refund_amount": null,
    "is_canceled": false,
    "is_refunded": false,
    "is_returned": false,
    "latitude": 31.7617,
    "longitude": -93.0916
  },
  {
    "order_id": "576626468581642263",
    "reporting_date": "2024-04-30",
    "customer_id": "ninapulpeux",
    "source_type": "Sales",
    "city": "Lexington",
    "state": "South Carolina",
    "state_code": "SC",
    "zipcode": "29073",
    "units_sold": 1,
    "order_sales": 14.82,
    "gross_sales": 19.99,
    "refund_amount": null,
    "is_canceled": false,
    "is_refunded": false,
    "is_returned": false,
    "latitude": 33.8632,
    "longitude": -81.2351
  },
  {
    "order_id": "576626468584526108",
    "reporting_date": "2024-04-30",
    "customer_id": "mamameat",
    "source_type": "Sales",
    "city": "Hollister",
    "state": "California",
    "state_code": "CA",
    "zipcode": "95023",
    "units_sold": 1,
    "order_sales": 14.82,
    "gross_sales": 19.99,
    "refund_amount": null,
    "is_canceled": false,
    "is_refunded": false,
    "is_returned": false,
    "latitude": 36.8337,
    "longitude": -121.3439
  },
  {
    "order_id": "576626461638562781",
    "reporting_date": "2024-04-30",
    "customer_id": "bossbeekike",
    "source_type": "Sales",
    "city": "Dinuba",
    "state": "California",
    "state_code": "CA",
    "zipcode": "93618",
    "units_sold": 1,
    "order_sales": 14.82,
    "gross_sales": 19.99,
    "refund_amount": null,
    "is_canceled": false,
    "is_refunded": false,
    "is_returned": false,
    "latitude": 36.5349,
    "longitude": -119.3909
  },
  {
    "order_id": "576626461438743232",
    "reporting_date": "2024-04-30",
    "customer_id": "michellerogers154",
    "source_type": "Sales",
    "city": "Tyler",
    "state": "Texas",
    "state_code": "TX",
    "zipcode": "75708",
    "units_sold": 1,
    "order_sales": 14.82,
    "gross_sales": 19.99,
    "refund_amount": null,
    "is_canceled": false,
    "is_refunded": false,
    "is_returned": false,
    "latitude": 32.419,
    "longitude": -95.2106
  },
  {
    "order_id": "576626461294563354",
    "reporting_date": "2024-04-30",
    "customer_id": "sunnie6868",
    "source_type": "Sales",
    "city": "Rochester",
    "state": "New York",
    "state_code": "NY",
    "zipcode": "14624",
    "units_sold": 1,
    "order_sales": 14.82,
    "gross_sales": 19.99,
    "refund_amount": null,
    "is_canceled": false,
    "is_refunded": false,
    "is_returned": false,
    "latitude": 43.1216,
    "longitude": -77.7311
  },
  {
    "order_id": "576626454397620545",
    "reporting_date": "2024-04-30",
    "customer_id": "stevetury",
    "source_type": "Sales",
    "city": "Coatesville",
    "state": "Pennsylvania",
    "state_code": "PA",
    "zipcode": "19320",
    "units_sold": 2,
    "order_sales": 29.64,
    "gross_sales": 39.98,
    "refund_amount": null,
    "is_canceled": false,
    "is_refunded": false,
    "is_returned": false,
    "latitude": 39.9843,
    "longitude": -75.8253
  },
  {
    "order_id": "576626448160821727",
    "reporting_date": "2024-04-30",
    "customer_id": "terridiaz3",
    "source_type": "Sales",
    "city": "Portland",
    "state": "Michigan",
    "state_code": "MI",
    "zipcode": "48875",
    "units_sold": 1,
    "order_sales": 14.82,
    "gross_sales": 19.99,
    "refund_amount": null,
    "is_canceled": false,
    "is_refunded": false,
    "is_returned": false,
    "latitude": 42.8624,
    "longitude": -84.9139
  },
  {
    "order_id": "576626448173928593",
    "reporting_date": "2024-04-30",
    "customer_id": "timbethea",
    "source_type": "Sales",
    "city": "Raeford",
    "state": "North Carolina",
    "state_code": "NC",
    "zipcode": "28376",
    "units_sold": 1,
    "order_sales": 14.82,
    "gross_sales": 19.99,
    "refund_amount": null,
    "is_canceled": false,
    "is_refunded": false,
    "is_returned": false,
    "latitude": 34.989,
    "longitude": -79.2228
  },
  {
    "order_id": "576626449713172637",
    "reporting_date": "2024-04-30",
    "customer_id": "susancumpton",
    "source_type": "Sales",
    "city": "Fort Worth",
    "state": "Texas",
    "state_code": "TX",
    "zipcode": "76179",
    "units_sold": 1,
    "order_sales": 14.82,
    "gross_sales": 19.99,
    "refund_amount": null,
    "is_canceled": false,
    "is_refunded": false,
    "is_returned": false,
    "latitude": 32.9074,
    "longitude": -97.4257
  },
  {
    "order_id": "576626449818096510",
    "reporting_date": "2024-04-30",
    "customer_id": "geradw",
    "source_type": "Sales",
    "city": "Galena",
    "state": "Alaska",
    "state_code": "AK",
    "zipcode": "99741",
    "units_sold": 2,
    "order_sales": 29.64,
    "gross_sales": 39.98,
    "refund_amount": null,
    "is_canceled": false,
    "is_refunded": false,
    "is_returned": false,
    "latitude": 64.7333,
    "longitude": -156.9275
  },
  {
    "order_id": "576626450682516341",
    "reporting_date": "2024-04-30",
    "customer_id": "tpodunk",
    "source_type": "Sales",
    "city": "Toledo",
    "state": "Ohio",
    "state_code": "OH",
    "zipcode": "43612",
    "units_sold": 1,
    "order_sales": 14.82,
    "gross_sales": 19.99,
    "refund_amount": null,
    "is_canceled": false,
    "is_refunded": false,
    "is_returned": false,
    "latitude": 41.7046,
    "longitude": -83.5656
  },
  {
    "order_id": "576626450859267025",
    "reporting_date": "2024-04-30",
    "customer_id": "nicole.denise10",
    "source_type": "Sales",
    "city": "Modesto",
    "state": "California",
    "state_code": "CA",
    "zipcode": "95350",
    "units_sold": 1,
    "order_sales": 14.82,
    "gross_sales": 19.99,
    "refund_amount": null,
    "is_canceled": false,
    "is_refunded": false,
    "is_returned": false,
    "latitude": 37.6746,
    "longitude": -121.0113
  },
  {
    "order_id": "576626451899715821",
    "reporting_date": "2024-04-30",
    "customer_id": "victoriaberry.74",
    "source_type": "Sales",
    "city": "Camarillo",
    "state": "California",
    "state_code": "CA",
    "zipcode": "93010",
    "units_sold": 1,
    "order_sales": 14.82,
    "gross_sales": 19.99,
    "refund_amount": null,
    "is_canceled": false,
    "is_refunded": false,
    "is_returned": false,
    "latitude": 34.2313,
    "longitude": -119.0464
  },
  {
    "order_id": "576626452687328075",
    "reporting_date": "2024-04-30",
    "customer_id": "nayellijimemez",
    "source_type": "Sales",
    "city": "Lubbock",
    "state": "Texas",
    "state_code": "TX",
    "zipcode": "79424",
    "units_sold": 2,
    "order_sales": 29.64,
    "gross_sales": 39.98,
    "refund_amount": null,
    "is_canceled": false,
    "is_refunded": false,
    "is_returned": false,
    "latitude": 33.5159,
    "longitude": -101.9344
  },
  {
    "order_id": "576626455156199978",
    "reporting_date": "2024-04-30",
    "customer_id": "robertmartin658",
    "source_type": "Sales",
    "city": "Johnson City",
    "state": "Tennessee",
    "state_code": "TN",
    "zipcode": "37604",
    "units_sold": 1,
    "order_sales": 14.82,
    "gross_sales": 19.99,
    "refund_amount": null,
    "is_canceled": false,
    "is_refunded": false,
    "is_returned": false,
    "latitude": 36.3107,
    "longitude": -82.381
  },