[
  {
    "order_id": "576592532487443327",
    "reporting_date": "2024-02-29",
    "customer_id": "rociocuevas131",
    "source_type": "Sales",
    "city": "Houston",
    "state": "Texas",
    "state_code": "TX",
    "zipcode": "77080",
    "units_sold": 1,
    "order_sales": 13.99,
    "gross_sales": 19.99,
    "refund_amount": null,
    "is_canceled": false,
    "is_refunded": false,
    "is_returned": false,
    "latitude": 29.8159,
    "longitude": -95.523
  },
  {
    "order_id": "576592552406913589",
    "reporting_date": "2024-02-29",
    "customer_id": "chargers_girly",
    "source_type": "Sales",
    "city": "Hemet",
    "state": "California",
    "state_code": "CA",
    "zipcode": "92544",
    "units_sold": 1,
    "order_sales": 34.99,
    "gross_sales": 34.99,
    "refund_amount": null,
    "is_canceled": false,
    "is_refunded": false,
    "is_returned": false,
    "latitude": 33.739,
    "longitude": -116.9243
  },
  {
    "order_id": "576592551805358656",
    "reporting_date": "2024-02-29",
    "customer_id": "naomib1977",
    "source_type": "Sales",
    "city": "Colton",
    "state": "California",
    "state_code": "CA",
    "zipcode": "92324",
    "units_sold": 1,
    "order_sales": 19.99,
    "gross_sales": 19.99,
    "refund_amount": null,
    "is_canceled": false,
    "is_refunded": false,
    "is_returned": false,
    "latitude": 34.0315,
    "longitude": -117.2874
  },
  {
    "order_id": "576592551665111787",
    "reporting_date": "2024-02-29",
    "customer_id": "hugzbbq_",
    "source_type": "Sales",
    "city": "Gilbert",
    "state": "Arizona",
    "state_code": "AZ",
    "zipcode": "85295",
    "units_sold": 1,
    "order_sales": 34.99,
    "gross_sales": 34.99,
    "refund_amount": null,
    "is_canceled": false,
    "is_refunded": false,
    "is_returned": false,
    "latitude": 33.3054,
    "longitude": -111.7408
  },
  {
    "order_id": "576592542665380388",
    "reporting_date": "2024-02-29",
    "customer_id": "sophiamunoz04",
    "source_type": "Sales",
    "city": "Victorville",
    "state": "California",
    "state_code": "CA",
    "zipcode": "92392",
    "units_sold": 1,
    "order_sales": 19.99,
    "gross_sales": 19.99,
    "refund_amount": null,
    "is_canceled": false,
    "is_refunded": false,
    "is_returned": false,
    "latitude": 34.4802,
    "longitude": -117.4082
  },
  {
    "order_id": "576592513023578214",
    "reporting_date": "2024-02-29",
    "customer_id": "Erick Steelman",
    "source_type": "Sales",
    "city": "West Covina",
    "state": "California",
    "state_code": "CA",
    "zipcode": "91792",
    "units_sold": 1,
    "order_sales": 34.99,
    "gross_sales": 34.99,
    "refund_amount": null,
    "is_canceled": false,
    "is_refunded": false,
    "is_returned": false,
    "latitude": 34.0229,
    "longitude": -117.8975
  },
  {
    "order_id": "576592524487987675",
    "reporting_date": "2024-02-29",
    "customer_id": "chowii_l3on",
    "source_type": "Sales",
    "city": "Victorville",
    "state": "California",
    "state_code": "CA",
    "zipcode": "92392",
    "units_sold": 1,
    "order_sales": 24.49,
    "gross_sales": 34.99,
    "refund_amount": null,
    "is_canceled": false,
    "is_refunded": false,
    "is_returned": false,
    "latitude": 34.4802,
    "longitude": -117.4082
  },
  {
    "order_id": "576592520887636149",
    "reporting_date": "2024-02-29",
    "customer_id": "silviaoliva76",
    "source_type": "Sales",
    "city": "Tracy",
    "state": "California",
    "state_code": "CA",
    "zipcode": "95377",
    "units_sold": 1,
    "order_sales": 34.99,
    "gross_sales": 34.99,
    "refund_amount": null,
    "is_canceled": false,
    "is_refunded": false,
    "is_returned": false,
    "latitude": 37.6567,
    "longitude": -121.4955
  },
  {
    "order_id": "576592514732429561",
    "reporting_date": "2024-02-29",
    "customer_id": "barbarahornstein63",
    "source_type": "Sales",
    "city": "Piper City",
    "state": "Illinois",
    "state_code": "IL",
    "zipcode": "60959",
    "units_sold": 1,
    "order_sales": 49.99,
    "gross_sales": 49.99,
    "refund_amount": null,
    "is_canceled": false,
    "is_refunded": false,
    "is_returned": false,
    "latitude": 40.7556,
    "longitude": -88.1873
  },
  {
    "order_id": "576592553156448799",
    "reporting_date": "2024-02-29",
    "customer_id": "user672206",
    "source_type": "Sales",
    "city": "San Dimas",
    "state": "California",
    "state_code": "CA",
    "zipcode": "91773",
    "units_sold": 1,
    "order_sales": 19.99,
    "gross_sales": 19.99,
    "refund_amount": null,
    "is_canceled": false,
    "is_refunded": false,
    "is_returned": false,
    "latitude": 34.1023,
    "longitude": -117.8169
  },
  {
    "order_id": "576592555556967121",
    "reporting_date": "2024-02-29",
    "customer_id": "ojitosverdes01230",
    "source_type": "Sales",
    "city": "Charlottesville",
    "state": "Virginia",
    "state_code": "VA",
    "zipcode": "22901",
    "units_sold": 1,
    "order_sales": 34.99,
    "gross_sales": 49.99,
    "refund_amount": null,
    "is_canceled": false,
    "is_refunded": false,
    "is_returned": false,
    "latitude": 38.0936,
    "longitude": -78.5611
  },
  {
    "order_id": "576592554846294082",
    "reporting_date": "2024-02-29",
    "customer_id": "yolieb26",
    "source_type": "Sales",
    "city": "Youngtown",
    "state": "Arizona",
    "state_code": "AZ",
    "zipcode": "85363",
    "units_sold": 1,
    "order_sales": 24.49,
    "gross_sales": 34.99,
    "refund_amount": null,
    "is_canceled": false,
    "is_refunded": false,
    "is_returned": false,
    "latitude": 33.5908,
    "longitude": -112.3013
  },
  {
    "order_id": "576592553465451418",
    "reporting_date": "2024-02-29",
    "customer_id": "ctrejo_schmidt",
    "source_type": "Sales",
    "city": "Corpus Christi",
    "state": "Texas",
    "state_code": "TX",
    "zipcode": "78414",
    "units_sold": 1,
    "order_sales": 34.99,
    "gross_sales": 34.99,
    "refund_amount": null,
    "is_canceled": false,
    "is_refunded": false,
    "is_returned": false,
    "latitude": 27.677,
    "longitude": -97.365
  },
  {
    "order_id": "576592553485505109",
    "reporting_date": "2024-02-29",
    "customer_id": "chriscalderon15",
    "source_type": "Sales",
    "city": "San Antonio",
    "state": "Texas",
    "state_code": "TX",
    "zipcode": "78253",
    "units_sold": 1,
    "order_sales": 34.99,
    "gross_sales": 34.99,
    "refund_amount": null,
    "is_canceled": false,
    "is_refunded": false,
    "is_returned": false,
    "latitude": 29.4599,
    "longitude": -98.7479
  },
  {
    "order_id": "576592553572406076",
    "reporting_date": "2024-02-29",
    "customer_id": "rockiedawg",
    "source_type": "Sales",
    "city": "Littleton",
    "state": "Colorado",
    "state_code": "CO",
    "zipcode": "80125",
    "units_sold": 2,
    "order_sales": 99.98,
    "gross_sales": 99.98,
    "refund_amount": null,
    "is_canceled": false,
    "is_refunded": false,
    "is_returned": false,
    "latitude": 39.4845,
    "longitude": -105.0561
  },
  {
    "order_id": "576592553627455766",
    "reporting_date": "2024-02-29",
    "customer_id": "elvira_sande",
    "source_type": "Sales",
    "city": "Pacoima",
    "state": "California",
    "state_code": "CA",
    "zipcode": "91331",
    "units_sold": 1,
    "order_sales": 34.99,
    "gross_sales": 34.99,
    "refund_amount": null,
    "is_canceled": false,
    "is_refunded": false,
    "is_returned": false,
    "latitude": 34.2556,
    "longitude": -118.4208
  },
  {
    "order_id": "576592553669070889",
    "reporting_date": "2024-02-29",
    "customer_id": "rmedinacna",
    "source_type": "Sales",
    "city": "Mount Pleasant",
    "state": "Tennessee",
    "state_code": "TN",
    "zipcode": "38474",
    "units_sold": 1,
    "order_sales": 34.99,
    "gross_sales": 34.99,
    "refund_amount": null,
    "is_canceled": false,
    "is_refunded": false,
    "is_returned": false,
    "latitude": 35.5301,
    "longitude": -87.2037
  },
  {
    "order_id": "576592553797390557",
    "reporting_date": "2024-02-29",
    "customer_id": "isa_mari244",
    "source_type": "Sales",
    "city": "Crystal City",
    "state": "Texas",
    "state_code": "TX",
    "zipcode": "78839",
    "units_sold": 1,
    "order_sales": 13.99,
    "gross_sales": 19.99,
    "refund_amount": null,
    "is_canceled": false,
    "is_refunded": false,
    "is_returned": false,
    "latitude": 28.687,
    "longitude": -99.8264
  },
  {
    "order_id": "576592554538537808",
    "reporting_date": "2024-02-29",
    "customer_id": "joyfarnam",
    "source_type": "Sales",
    "city": "Oceanside",
    "state": "California",
    "state_code": "CA",
    "zipcode": "92057",
    "units_sold": 1,
    "order_sales": 34.99,
    "gross_sales": 49.99,
    "refund_amount": null,
    "is_canceled": false,
    "is_refunded": false,
    "is_returned": false,
    "latitude": 33.2407,
    "longitude": -117.3025
  },
  {
    "order_id": "576592554791374921",
    "reporting_date": "2024-02-29",
    "customer_id": "ksmiles5",
    "source_type": "Sales",
    "city": "Martinsburg",
    "state": "Missouri",
    "state_code": "MO",
    "zipcode": "65264",
    "units_sold": 1,
    "order_sales": 24.49,
    "gross_sales": 34.99,
    "refund_amount": null,
    "is_canceled": false,
    "is_refunded": false,
    "is_returned": false,
    "latitude": 39.0968,
    "longitude": -91.6646
  },
  {
    "order_id": "576592555149333410",
    "reporting_date": "2024-02-29",
    "customer_id": "lowridergirl805",
    "source_type": "Sales",
    "city": "Oxnard",
    "state": "California",
    "state_code": "CA",
    "zipcode": "93036",
    "units_sold": 1,
    "order_sales": 34.99,
    "gross_sales": 49.99,
    "refund_amount": null,
    "is_canceled": false,
    "is_refunded": false,
    "is_returned": false,
    "latitude": 34.2351,
    "longitude": -119.182
  },
  {
    "order_id": "576592494922666109",
    "reporting_date": "2024-02-29",
    "customer_id": ".reynosa",
    "source_type": "Sales",
    "city": "Odessa",
    "state": "Texas",
    "state_code": "TX",
    "zipcode": "79761",
    "units_sold": 2,
    "order_sales": 79.98,
    "gross_sales": 99.98,
    "refund_amount": null,
    "is_canceled": false,
    "is_refunded": false,
    "is_returned": false,
    "latitude": 31.8579,
    "longitude": -102.3523
  },
  {
    "order_id": "576592500295373461",
    "reporting_date": "2024-02-29",
    "customer_id": "gabss725",
    "source_type": "Sales",
    "city": "Carmichael",
    "state": "California",
    "state_code": "CA",
    "zipcode": "95608",
    "units_sold": 1,
    "order_sales": 34.99,
    "gross_sales": 34.99,
    "refund_amount": null,
    "is_canceled": false,
    "is_refunded": false,
    "is_returned": false,
    "latitude": 38.6284,
    "longitude": -121.3287
  },
  {
    "order_id": "576592407476801879",
    "reporting_date": "2024-02-29",
    "customer_id": "margaretmahoney71",
    "source_type": "Sales",
    "city": "Natchez",
    "state": "Mississippi",
    "state_code": "MS",
    "zipcode": "39120",
    "units_sold": 1,
    "order_sales": 34.99,
    "gross_sales": 34.99,
    "refund_amount": null,
    "is_canceled": false,
    "is_refunded": false,
    "is_returned": false,
    "latitude": 31.5492,
    "longitude": -91.3642
  },
  {
    "order_id": "576592485839311807",
    "reporting_date": "2024-02-29",
    "customer_id": "polly_the_bad_too",
    "source_type": "Sales",
    "city": "Valley Stream",
    "state": "New York",
    "state_code": "NY",
    "zipcode": "11581",
    "units_sold": 1,
    "order_sales": 34.99,
    "gross_sales": 34.99,
    "refund_amount": null,
    "is_canceled": false,
    "is_refunded": false,
    "is_returned": false,
    "latitude": 40.6523,
    "longitude": -73.7118
  },
  {
    "order_id": "576592436135891778",
    "reporting_date": "2024-02-29",
    "customer_id": "user36377156",
    "source_type": "Sales",
    "city": "San Angelo",
    "state": "Texas",
    "state_code": "TX",
    "zipcode": "76901",
    "units_sold": 1,
    "order_sales": 34.99,
    "gross_sales": 34.99,
    "refund_amount": null,
    "is_canceled": false,
    "is_refunded": false,
    "is_returned": false,
    "latitude": 31.4782,
    "longitude": -100.4818
  },
  {
    "order_id": "576592555946447087",
    "reporting_date": "2024-02-29",
    "customer_id": "nanasarg",
    "source_type": "Sales",
    "city": "San Jose",
    "state": "California",
    "state_code": "CA",
    "zipcode": "95132",
    "units_sold": 1,
    "order_sales": 24.49,
    "gross_sales": 34.99,
    "refund_amount": null,
    "is_canceled": false,
    "is_refunded": false,
    "is_returned": false,
    "latitude": 37.4031,
    "longitude": -121.8585
  },
  {
    "order_id": "576592405910688349",
    "reporting_date": "2024-02-29",
    "customer_id": "indialovesdogs",
    "source_type": "Sales",
    "city": "Temecula",
    "state": "California",
    "state_code": "CA",
    "zipcode": "92592",
    "units_sold": 1,
    "order_sales": 24.49,
    "gross_sales": 34.99,
    "refund_amount": null,
    "is_canceled": false,
    "is_refunded": false,
    "is_returned": false,
    "latitude": 33.4983,
    "longitude": -117.0958
  },
  {
    "order_id": "576592406727725347",
    "reporting_date": "2024-02-29",
    "customer_id": "usergilgomez",
    "source_type": "Sales",
    "city": "El Paso",
    "state": "Texas",
    "state_code": "TX",
    "zipcode": "79925",
    "units_sold": 1,
    "order_sales": 34.99,
    "gross_sales": 34.99,
    "refund_amount": null,
    "is_canceled": false,
    "is_refunded": false,
    "is_returned": false,
    "latitude": 31.7814,
    "longitude": -106.3613
  },
  {
    "order_id": "576592414562947321",
    "reporting_date": "2024-02-29",
    "customer_id": "bettyp24",
    "source_type": "Sales",
    "city": "Valencia",
    "state": "California",
    "state_code": "CA",
    "zipcode": "91354",
    "units_sold": 1,
    "order_sales": 34.99,
    "gross_sales": 34.99,
    "refund_amount": null,
    "is_canceled": false,
    "is_refunded": false,
    "is_returned": false,
    "latitude": 34.4466,
    "longitude": -118.5374
  },
  {
    "order_id": "576592416786912000",
    "reporting_date": "2024-02-29",
    "customer_id": "purocapo",
    "source_type": "Sales",
    "city": "Hot Springs National Park",
    "state": "Arkansas",
    "state_code": "AR",
    "zipcode": "71913",
    "units_sold": 1,
    "order_sales": 24.49,
    "gross_sales": 34.99,
    "refund_amount": null,
    "is_canceled": false,
    "is_refunded": false,
    "is_returned": false,
    "latitude": 34.5317,
    "longitude": -93.0638
  },
  {
    "order_id": "576592419896660849",
    "reporting_date": "2024-02-29",
    "customer_id": "gennbob",
    "source_type": "Sales",
    "city": "San Bernardino",
    "state": "California",
    "state_code": "CA",
    "zipcode": "92405",
    "units_sold": 1,
    "order_sales": 24.49,
    "gross_sales": 34.99,
    "refund_amount": null,
    "is_canceled": false,
    "is_refunded": false,
    "is_returned": false,
    "latitude": 34.1446,
    "longitude": -117.3013
  },
  {
    "order_id": "576592420200419711",
    "reporting_date": "2024-02-29",
    "customer_id": "user8037621198249",
    "source_type": "Sales",
    "city": "Lake Elsinore",
    "state": "California",
    "state_code": "CA",
    "zipcode": "92530",
    "units_sold": 1,
    "order_sales": 19.99,
    "gross_sales": 19.99,
    "refund_amount": null,
    "is_canceled": false,
    "is_refunded": false,
    "is_returned": false,
    "latitude": 33.6598,
    "longitude": -117.3485
  },
  {
    "order_id": "576592427022848036",
    "reporting_date": "2024-02-29",
    "customer_id": "slkster69",
    "source_type": "Sales",
    "city": "Lake Elsinore",
    "state": "California",
    "state_code": "CA",
    "zipcode": "92530",
    "units_sold": 1,
    "order_sales": 34.99,
    "gross_sales": 34.99,
    "refund_amount": null,
    "is_canceled": false,
    "is_refunded": false,
    "is_returned": false,
    "latitude": 33.6598,
    "longitude": -117.3485
  },
  {
    "order_id": "576592434319037059",
    "reporting_date": "2024-02-29",
    "customer_id": "angeew007",
    "source_type": "Sales",
    "city": "Oakley",
    "state": "California",
    "state_code": "CA",
    "zipcode": "94561",
    "units_sold": 1,
    "order_sales": 34.99,
    "gross_sales": 34.99,
    "refund_amount": null,
    "is_canceled": false,
    "is_refunded": false,
    "is_returned": false,
    "latitude": 37.994,
    "longitude": -121.7036
  },
  {
    "order_id": "576592447423157230",
    "reporting_date": "2024-02-29",
    "customer_id": "maritzainez",
    "source_type": "Sales",
    "city": "San Manuel",
    "state": "Arizona",
    "state_code": "AZ",
    "zipcode": "85631",
    "units_sold": 1,
    "order_sales": 34.99,
    "gross_sales": 34.99,
    "refund_amount": null,
    "is_canceled": false,
    "is_refunded": false,
    "is_returned": false,
    "latitude": 32.6209,
    "longitude": -110.5992
  },
  {
    "order_id": "576592478360867087",
    "reporting_date": "2024-02-29",
    "customer_id": "survivingcalifornia",
    "source_type": "Sales",
    "city": "San Bernardino",
    "state": "California",
    "state_code": "CA",
    "zipcode": "92407",
    "units_sold": 1,
    "order_sales": 19.99,
    "gross_sales": 19.99,
    "refund_amount": null,
    "is_canceled": false,
    "is_refunded": false,
    "is_returned": false,
    "latitude": 34.2166,
    "longitude": -117.3908
  },
  {
    "order_id": "576592451767866067",
    "reporting_date": "2024-02-29",
    "customer_id": "sflores59",
    "source_type": "Sales",
    "city": "Soledad",
    "state": "California",
    "state_code": "CA",
    "zipcode": "93960",
    "units_sold": 1,
    "order_sales": 24.49,
    "gross_sales": 34.99,
    "refund_amount": null,
    "is_canceled": false,
    "is_refunded": false,
    "is_returned": false,
    "latitude": 36.4196,
    "longitude": -121.3243
  },
  {
    "order_id": "576592453330374981",
    "reporting_date": "2024-02-29",
    "customer_id": "marthaesparza82",
    "source_type": "Sales",
    "city": "Pomona",
    "state": "California",
    "state_code": "CA",
    "zipcode": "91767",
    "units_sold": 1,
    "order_sales": 34.99,
    "gross_sales": 34.99,
    "refund_amount": null,
    "is_canceled": false,
    "is_refunded": false,
    "is_returned": false,
    "latitude": 34.0812,
    "longitude": -117.7362
  },
  {
    "order_id": "576592453934551827",
    "reporting_date": "2024-02-29",
    "customer_id": "claribelramirez1",
    "source_type": "Sales",
    "city": "Escondido",
    "state": "California",
    "state_code": "CA",
    "zipcode": "92026",
    "units_sold": 1,
    "order_sales": 49.99,
    "gross_sales": 49.99,
    "refund_amount": null,
    "is_canceled": false,
    "is_refunded": false,
    "is_returned": false,
    "latitude": 33.1605,
    "longitude": -117.0978
  },
  {
    "order_id": "576592454854611867",
    "reporting_date": "2024-02-29",
    "customer_id": "erodespi82",
    "source_type": "Sales",
    "city": "San Marcos",
    "state": "Texas",
    "state_code": "TX",
    "zipcode": "78666",
    "units_sold": 1,
    "order_sales": 19.99,
    "gross_sales": 19.99,
    "refund_amount": null,
    "is_canceled": false,
    "is_refunded": false,
    "is_returned": false,
    "latitude": 29.8754,
    "longitude": -97.9404
  },
  {
    "order_id": "576592456393331542",
    "reporting_date": "2024-02-29",
    "customer_id": "vizcast3",
    "source_type": "Sales",
    "city": "Chula Vista",
    "state": "California",
    "state_code": "CA",
    "zipcode": "91910",
    "units_sold": 1,
    "order_sales": 49.99,
    "gross_sales": 49.99,
    "refund_amount": null,
    "is_canceled": false,
    "is_refunded": false,
    "is_returned": false,
    "latitude": 32.6371,
    "longitude": -117.0676
  },
  {
    "order_id": "576592461989974885",
    "reporting_date": "2024-02-29",
    "customer_id": "georgedhc2",
    "source_type": "Sales",
    "city": "Paramount",
    "state": "California",
    "state_code": "CA",
    "zipcode": "90723",
    "units_sold": 1,
    "order_sales": 13.99,
    "gross_sales": 19.99,
    "refund_amount": null,
    "is_canceled": false,
    "is_refunded": false,
    "is_returned": false,
    "latitude": 33.8969,
    "longitude": -118.1632
  },
  {
    "order_id": "576592464235172139",
    "reporting_date": "2024-02-29",
    "customer_id": "hithere92",
    "source_type": "Sales",
    "city": "Winchester",
    "state": "California",
    "state_code": "CA",
    "zipcode": "92596",
    "units_sold": 1,
    "order_sales": 19.99,
    "gross_sales": 19.99,
    "refund_amount": null,
    "is_canceled": false,
    "is_refunded": false,
    "is_returned": false,
    "latitude": 33.6243,
    "longitude": -117.0885
  },
  {
    "order_id": "576592467011670939",
    "reporting_date": "2024-02-29",
    "customer_id": "annanori29",
    "source_type": "Sales",
    "city": "Bakersfield",
    "state": "California",
    "state_code": "CA",
    "zipcode": "93306",
    "units_sold": 1,
    "order_sales": 19.99,
    "gross_sales": 19.99,
    "refund_amount": null,
    "is_canceled": false,
    "is_refunded": false,
    "is_returned": false,
    "latitude": 35.3867,
    "longitude": -118.9391
  },
  {
    "order_id": "576592469535461404",
    "reporting_date": "2024-02-29",
    "customer_id": "alfredovaltierra78",
    "source_type": "Sales",
    "city": "Brawley",
    "state": "California",
    "state_code": "CA",
    "zipcode": "92227",
    "units_sold": 1,
    "order_sales": 19.99,
    "gross_sales": 19.99,
    "refund_amount": null,
    "is_canceled": false,
    "is_refunded": false,
    "is_returned": false,
    "latitude": 32.9792,
    "longitude": -115.5296
  },
  {
    "order_id": "576592555872785089",
    "reporting_date": "2024-02-29",
    "customer_id": "amykoker4",
    "source_type": "Sales",
    "city": "Champaign",
    "state": "Illinois",
    "state_code": "IL",
    "zipcode": "61821",
    "units_sold": 1,
    "order_sales": 34.99,
    "gross_sales": 49.99,
    "refund_amount": null,
    "is_canceled": false,
    "is_refunded": false,
    "is_returned": false,
    "latitude": 40.1073,
    "longitude": -88.2788
  },
  {
    "order_id": "576592570745655398",
    "reporting_date": "2024-02-29",
    "customer_id": "hernan.mari",
    "source_type": "Sales",
    "city": "Fort Wayne",
    "state": "Indiana",
    "state_code": "IN",
    "zipcode": "46808",
    "units_sold": 1,
    "order_sales": 24.49,
    "gross_sales": 34.99,
    "refund_amount": null,
    "is_canceled": false,
    "is_refunded": false,
    "is_returned": false,
    "latitude": 41.0939,
    "longitude": -85.1621
  },
  {
    "order_id": "576592555958440119",
    "reporting_date": "2024-02-29",
    "customer_id": "rodrigueseva0",
    "source_type": "Sales",
    "city": "Visalia",
    "state": "California",
    "state_code": "CA",
    "zipcode": "93277",
    "units_sold": 1,
    "order_sales": 34.99,
    "gross_sales": 49.99,
    "refund_amount": null,
    "is_canceled": false,
    "is_refunded": false,
    "is_returned": false,
    "latitude": 36.3114,
    "longitude": -119.3065
  },
  {
    "order_id": "576592572715798582",
    "reporting_date": "2024-02-29",
    "customer_id": "packnation24",
    "source_type": "Sales",
    "city": "Adelanto",
    "state": "California",
    "state_code": "CA",
    "zipcode": "92301",
    "units_sold": 1,
    "order_sales": 34.99,
    "gross_sales": 49.99,
    "refund_amount": null,
    "is_canceled": false,
    "is_refunded": false,
    "is_returned": false,
    "latitude": 34.5841,
    "longitude": -117.4242
  },
  {
    "order_id": "576592644860646008",
    "reporting_date": "2024-02-29",
    "customer_id": "lovinlife2222",
    "source_type": "Sales",
    "city": "Stockton",
    "state": "California",
    "state_code": "CA",
    "zipcode": "95209",
    "units_sold": 1,
    "order_sales": 34.99,
    "gross_sales": 49.99,
    "refund_amount": null,
    "is_canceled": false,
    "is_refunded": false,
    "is_returned": false,
    "latitude": 38.0377,
    "longitude": -121.3445
  },
  {
    "order_id": "576592650354528614",
    "reporting_date": "2024-02-29",
    "customer_id": "thatred135",
    "source_type": "Sales",
    "city": "Hoffman Estates",
    "state": "Illinois",
    "state_code": "IL",
    "zipcode": "60169",
    "units_sold": 1,
    "order_sales": 25.99,
    "gross_sales": 34.99,
    "refund_amount": null,
    "is_canceled": false,
    "is_refunded": false,
    "is_returned": false,
    "latitude": 42.0493,
    "longitude": -88.1065
  },
  {
    "order_id": "576592659851874401",
    "reporting_date": "2024-02-29",
    "customer_id": "imhereforthefunnytok",
    "source_type": "Sales",
    "city": "Diamond Bar",
    "state": "California",
    "state_code": "CA",
    "zipcode": "91765",
    "units_sold": 1,
    "order_sales": 34.99,
    "gross_sales": 34.99,
    "refund_amount": null,
    "is_canceled": false,
    "is_refunded": false,
    "is_returned": false,
    "latitude": 34.0066,
    "longitude": -117.8098
  },
  {
    "order_id": "576592660408144510",
    "reporting_date": "2024-02-29",
    "customer_id": "mrcoolhtg7106",
    "source_type": "Sales",
    "city": "Castle Pines",
    "state": "Colorado",
    "state_code": "CO",
    "zipcode": "80108",
    "units_sold": 1,
    "order_sales": 19.99,
    "gross_sales": 19.99,
    "refund_amount": null,
    "is_canceled": false,
    "is_refunded": false,
    "is_returned": false,
    "latitude": 39.4455,
    "longitude": -104.853
  },
  {
    "order_id": "576592661842662220",
    "reporting_date": "2024-02-29",
    "customer_id": "Melissa Angulo",
    "source_type": "Sales",
    "city": "Phoenix",
    "state": "Arizona",
    "state_code": "AZ",
    "zipcode": "85041",
    "units_sold": 1,
    "order_sales": 24.49,
    "gross_sales": 34.99,
    "refund_amount": null,
    "is_canceled": false,
    "is_refunded": false,
    "is_returned": false,
    "latitude": 33.3889,
    "longitude": -112.0954
  },
  {
    "order_id": "576592665306108169",
    "reporting_date": "2024-02-29",
    "customer_id": "marlenevilla1807",
    "source_type": "Sales",
    "city": "Palmdale",
    "state": "California",
    "state_code": "CA",
    "zipcode": "93550",
    "units_sold": 1,
    "order_sales": 34.99,
    "gross_sales": 34.99,
    "refund_amount": null,
    "is_canceled": false,
    "is_refunded": false,
    "is_returned": false,
    "latitude": 34.4133,
    "longitude": -118.0917
  },
  {
    "order_id": "576592671187898869",
    "reporting_date": "2024-02-29",
    "customer_id": "dgl0720",
    "source_type": "Sales",
    "city": "Santa Ana",
    "state": "California",
    "state_code": "CA",
    "zipcode": "92707",
    "units_sold": 1,
    "order_sales": 36.65,
    "gross_sales": 49.99,
    "refund_amount": null,
    "is_canceled": false,
    "is_refunded": false,
    "is_returned": false,
    "latitude": 33.7086,
    "longitude": -117.8701
  },
  {
    "order_id": "576592678960075344",
    "reporting_date": "2024-02-29",
    "customer_id": "rebeccamathison",
    "source_type": "Sales",
    "city": "Riverside",
    "state": "California",
    "state_code": "CA",
    "zipcode": "92508",
    "units_sold": 1,
    "order_sales": 34.99,
    "gross_sales": 34.99,
    "refund_amount": null,
    "is_canceled": false,
    "is_refunded": false,
    "is_returned": false,
    "latitude": 33.8897,
    "longitude": -117.3043
  },
  {
    "order_id": "576592679086755959",
    "reporting_date": "2024-02-29",
    "customer_id": "jillkristine",
    "source_type": "Sales",
    "city": "Muskegon",
    "state": "Michigan",
    "state_code": "MI",
    "zipcode": "49445",
    "units_sold": 1,
    "order_sales": 34.99,
    "gross_sales": 34.99,
    "refund_amount": null,
    "is_canceled": false,
    "is_refunded": false,
    "is_returned": false,
    "latitude": 43.2952,
    "longitude": -86.279
  },
  {
    "order_id": "576592696112288482",
    "reporting_date": "2024-02-29",
    "customer_id": "johnnymelchor2",
    "source_type": "Sales",
    "city": "Oregon City",
    "state": "Oregon",
    "state_code": "OR",
    "zipcode": "97045",
    "units_sold": 1,
    "order_sales": 11.99,
    "gross_sales": 19.99,
    "refund_amount": null,
    "is_canceled": false,
    "is_refunded": false,
    "is_returned": false,
    "latitude": 45.3377,
    "longitude": -122.57
  },
  {
    "order_id": "576592698622448047",
    "reporting_date": "2024-02-29",
    "customer_id": "mr_pinkylopez",
    "source_type": "Sales",
    "city": "Fort Irwin",
    "state": "California",
    "state_code": "CA",
    "zipcode": "92310",
    "units_sold": 1,
    "order_sales": 13.99,
    "gross_sales": 19.99,
    "refund_amount": null,
    "is_canceled": false,
    "is_refunded": false,
    "is_returned": false,
    "latitude": 35.2625,
    "longitude": -116.6966
  },
  {
    "order_id": "576592583744786491",
    "reporting_date": "2024-02-29",
    "customer_id": "amocat2020",
    "source_type": "Sales",
    "city": "Los Banos",
    "state": "California",
    "state_code": "CA",
    "zipcode": "93635",
    "units_sold": 1,
    "order_sales": 19.99,
    "gross_sales": 19.99,
    "refund_amount": null,
    "is_canceled": false,
    "is_refunded": false,
    "is_returned": false,
    "latitude": 37.0627,
    "longitude": -120.8544
  },
  {
    "order_id": "576592583332041128",
    "reporting_date": "2024-02-29",
    "customer_id": "michelleranee71",
    "source_type": "Sales",
    "city": "Commerce City",
    "state": "Colorado",
    "state_code": "CO",
    "zipcode": "80022",
    "units_sold": 1,
    "order_sales": 34.99,
    "gross_sales": 34.99,
    "refund_amount": null,
    "is_canceled": false,
    "is_refunded": false,
    "is_returned": false,
    "latitude": 39.8259,
    "longitude": -104.9113
  },
  {
    "order_id": "576592583214469670",
    "reporting_date": "2024-02-29",
    "customer_id": "userxgkx4bhxow",
    "source_type": "Sales",
    "city": "Mesa",
    "state": "Arizona",
    "state_code": "AZ",
    "zipcode": "85207",
    "units_sold": 1,
    "order_sales": 34.99,
    "gross_sales": 34.99,
    "refund_amount": null,
    "is_canceled": false,
    "is_refunded": false,
    "is_returned": false,
    "latitude": 33.4321,
    "longitude": -111.6426
  },
  {
    "order_id": "576592580399697934",
    "reporting_date": "2024-02-29",
    "customer_id": "marcosparrowe",
    "source_type": "Sales",
    "city": "Panama City",
    "state": "Florida",
    "state_code": "FL",
    "zipcode": "32405",
    "units_sold": 1,
    "order_sales": 34.99,
    "gross_sales": 34.99,
    "refund_amount": null,
    "is_canceled": false,
    "is_refunded": false,
    "is_returned": false,
    "latitude": 30.1949,
    "longitude": -85.6727
  },
  {
    "order_id": "576592579922793211",
    "reporting_date": "2024-02-29",
    "customer_id": "stephaniecabusi3",
    "source_type": "Sales",
    "city": "San Diego",
    "state": "California",
    "state_code": "CA",
    "zipcode": "92117",
    "units_sold": 1,
    "order_sales": 13.99,
    "gross_sales": 19.99,
    "refund_amount": null,
    "is_canceled": false,
    "is_refunded": false,
    "is_returned": false,
    "latitude": 32.8239,
    "longitude": -117.1965
  },
  {
    "order_id": "576592579762491782",
    "reporting_date": "2024-02-29",
    "customer_id": "mamabeezy90",
    "source_type": "Sales",
    "city": "Longview",
    "state": "Washington",
    "state_code": "WA",
    "zipcode": "98632",
    "units_sold": 1,
    "order_sales": 19.99,
    "gross_sales": 19.99,
    "refund_amount": null,
    "is_canceled": false,
    "is_refunded": false,
    "is_returned": false,
    "latitude": 46.1514,
    "longitude": -122.9634
  },
  {
    "order_id": "576592641901630121",
    "reporting_date": "2024-02-29",
    "customer_id": "littlechucks_ribbon",
    "source_type": "Sales",
    "city": "Baldwin Park",
    "state": "California",
    "state_code": "CA",
    "zipcode": "91706",
    "units_sold": 1,
    "order_sales": 13.99,
    "gross_sales": 19.99,
    "refund_amount": null,
    "is_canceled": false,
    "is_refunded": false,
    "is_returned": false,
    "latitude": 34.0964,
    "longitude": -117.9682
  },
  {
    "order_id": "576592640558207840",
    "reporting_date": "2024-02-29",
    "customer_id": "ackimes",
    "source_type": "Sales",
    "city": "Calumet City",
    "state": "Illinois",
    "state_code": "IL",
    "zipcode": "60409",
    "units_sold": 1,
    "order_sales": 19.99,
    "gross_sales": 19.99,
    "refund_amount": null,
    "is_canceled": false,
    "is_refunded": false,
    "is_returned": false,
    "latitude": 41.6153,
    "longitude": -87.5483
  },
  {
    "order_id": "576592633768547300",
    "reporting_date": "2024-02-29",
    "customer_id": "6lunar7",
    "source_type": "Sales",
    "city": "Menlo Park",
    "state": "California",
    "state_code": "CA",
    "zipcode": "94025",
    "units_sold": 1,
    "order_sales": 34.99,
    "gross_sales": 49.99,
    "refund_amount": null,
    "is_canceled": false,
    "is_refunded": false,
    "is_returned": false,
    "latitude": 37.4396,
    "longitude": -122.1864
  },
  {
    "order_id": "576592602156667525",
    "reporting_date": "2024-02-29",
    "customer_id": "ipaguy78",
    "source_type": "Sales",
    "city": "Granite Falls",
    "state": "Washington",
    "state_code": "WA",
    "zipcode": "98252",
    "units_sold": 1,
    "order_sales": 19.99,
    "gross_sales": 19.99,
    "refund_amount": null,
    "is_canceled": false,
    "is_refunded": false,
    "is_returned": false,
    "latitude": 48.079,
    "longitude": -121.9428
  },
  {
    "order_id": "576592556210623232",
    "reporting_date": "2024-02-29",
    "customer_id": "jenniferrubio8666",
    "source_type": "Sales",
    "city": "Oklahoma City",
    "state": "Oklahoma",
    "state_code": "OK",
    "zipcode": "73132",
    "units_sold": 1,
    "order_sales": 34.99,
    "gross_sales": 49.99,
    "refund_amount": null,
    "is_canceled": false,
    "is_refunded": false,
    "is_returned": false,
    "latitude": 35.5583,
    "longitude": -97.6375
  },
  {
    "order_id": "576592589530567107",
    "reporting_date": "2024-02-29",
    "customer_id": "lowerlayin",
    "source_type": "Sales",
    "city": "Huntington Beach",
    "state": "California",
    "state_code": "CA",
    "zipcode": "92646",
    "units_sold": 1,
    "order_sales": 24.49,
    "gross_sales": 34.99,
    "refund_amount": null,
    "is_canceled": false,
    "is_refunded": false,
    "is_returned": false,
    "latitude": 33.6654,
    "longitude": -117.9686
  },
  {
    "order_id": "576592589795136453",
    "reporting_date": "2024-02-29",
    "customer_id": "frankrequiem",
    "source_type": "Sales",
    "city": "Canoga Park",
    "state": "California",
    "state_code": "CA",
    "zipcode": "91304",
    "units_sold": 1,
    "order_sales": 34.99,
    "gross_sales": 34.99,
    "refund_amount": null,
    "is_canceled": false,
    "is_refunded": false,
    "is_returned": false,
    "latitude": 34.2197,
    "longitude": -118.6111
  },
  {
    "order_id": "576592591817052397",
    "reporting_date": "2024-02-29",
    "customer_id": "notallthere",
    "source_type": "Sales",
    "city": "Santa Clara",
    "state": "California",
    "state_code": "CA",
    "zipcode": "95051",
    "units_sold": 1,
    "order_sales": 24.99,
    "gross_sales": 34.99,
    "refund_amount": null,
    "is_canceled": false,
    "is_refunded": false,
    "is_returned": false,
    "latitude": 37.3483,
    "longitude": -121.9844
  },
  {
    "order_id": "576592593708486862",
    "reporting_date": "2024-02-29",
    "customer_id": "drjoanrodriguezjaimes",
    "source_type": "Sales",
    "city": "San Antonio",
    "state": "Texas",
    "state_code": "TX",
    "zipcode": "78242",
    "units_sold": 1,
    "order_sales": 34.99,
    "gross_sales": 34.99,
    "refund_amount": null,
    "is_canceled": false,
    "is_refunded": false,
    "is_returned": false,
    "latitude": 29.3509,
    "longitude": -98.6109
  },
  {
    "order_id": "576592599704703647",
    "reporting_date": "2024-02-29",
    "customer_id": "nammaperez",
    "source_type": "Sales",
    "city": "Fresno",
    "state": "California",
    "state_code": "CA",
    "zipcode": "93726",
    "units_sold": 1,
    "order_sales": 13.99,
    "gross_sales": 19.99,
    "refund_amount": null,
    "is_canceled": false,
    "is_refunded": false,
    "is_returned": false,
    "latitude": 36.7949,
    "longitude": -119.7604
  },
  {
    "order_id": "576592600212673173",
    "reporting_date": "2024-02-29",
    "customer_id": "roseandrea59",
    "source_type": "Sales",
    "city": "Harlem",
    "state": "Montana",
    "state_code": "MT",
    "zipcode": "59526",
    "units_sold": 1,
    "order_sales": 19.99,
    "gross_sales": 19.99,
    "refund_amount": null,
    "is_canceled": false,
    "is_refunded": false,
    "is_returned": false,
    "latitude": 48.5398,
    "longitude": -108.7693
  },
  {
    "order_id": "576592605440282964",
    "reporting_date": "2024-02-29",
    "customer_id": "annasanchez247",
    "source_type": "Sales",
    "city": "Los Angeles",
    "state": "California",
    "state_code": "CA",
    "zipcode": "90042",
    "units_sold": 1,
    "order_sales": 13.99,
    "gross_sales": 19.99,
    "refund_amount": null,
    "is_canceled": false,
    "is_refunded": false,
    "is_returned": false,
    "latitude": 34.1145,
    "longitude": -118.1929
  },
  {
    "order_id": "576592630083851168",
    "reporting_date": "2024-02-29",
    "customer_id": "cathyg2sbcglobal",
    "source_type": "Sales",
    "city": "San Pedro",
    "state": "California",
    "state_code": "CA",
    "zipcode": "90731",
    "units_sold": 1,
    "order_sales": 24.49,
    "gross_sales": 34.99,
    "refund_amount": null,
    "is_canceled": false,
    "is_refunded": false,
    "is_returned": false,
    "latitude": 33.7339,
    "longitude": -118.2914
  },
  {
    "order_id": "576592606599418502",
    "reporting_date": "2024-02-29",
    "customer_id": "marinafigueroaa",
    "source_type": "Sales",
    "city": "Tucson",
    "state": "Arizona",
    "state_code": "AZ",
    "zipcode": "85746",
    "units_sold": 1,
    "order_sales": 20.99,
    "gross_sales": 34.99,
    "refund_amount": null,
    "is_canceled": false,
    "is_refunded": false,
    "is_returned": false,
    "latitude": 32.1422,
    "longitude": -111.0506
  },
  {
    "order_id": "576592606756770669",
    "reporting_date": "2024-02-29",
    "customer_id": "daezellairby",
    "source_type": "Sales",
    "city": "Benicia",
    "state": "California",
    "state_code": "CA",
    "zipcode": "94510",
    "units_sold": 1,
    "order_sales": 24.49,
    "gross_sales": 34.99,
    "refund_amount": null,
    "is_canceled": false,
    "is_refunded": false,
    "is_returned": false,
    "latitude": 38.0685,
    "longitude": -122.1614
  },
  {
    "order_id": "576592585269481844",
    "reporting_date": "2024-02-29",
    "customer_id": "mommy_wonka",
    "source_type": "Sales",
    "city": "Columbia",
    "state": "Missouri",
    "state_code": "MO",
    "zipcode": "65202",
    "units_sold": 1,
    "order_sales": 19.99,
    "gross_sales": 19.99,
    "refund_amount": null,
    "is_canceled": false,
    "is_refunded": false,
    "is_returned": false,
    "latitude": 38.995,
    "longitude": -92.3112
  },
  {
    "order_id": "576592609649398281",
    "reporting_date": "2024-02-29",
    "customer_id": "anayancivs",
    "source_type": "Sales",
    "city": "Beaumont",
    "state": "California",
    "state_code": "CA",
    "zipcode": "92223",
    "units_sold": 1,
    "order_sales": 19.99,
    "gross_sales": 19.99,
    "refund_amount": null,
    "is_canceled": false,
    "is_refunded": false,
    "is_returned": false,
    "latitude": 33.9504,
    "longitude": -116.9701
  },
  {
    "order_id": "576592610580140913",
    "reporting_date": "2024-02-29",
    "customer_id": "punish8r",
    "source_type": "Sales",
    "city": "Eastvale",
    "state": "California",
    "state_code": "CA",
    "zipcode": "92880",
    "units_sold": 1,
    "order_sales": 19.99,
    "gross_sales": 19.99,
    "refund_amount": null,
    "is_canceled": false,
    "is_refunded": false,
    "is_returned": false,
    "latitude": 33.9208,
    "longitude": -117.6096
  },
  {
    "order_id": "576592612380414929",
    "reporting_date": "2024-02-29",
    "customer_id": "arts1977",
    "source_type": "Sales",
    "city": "Stockton",
    "state": "California",
    "state_code": "CA",
    "zipcode": "95204",
    "units_sold": 1,
    "order_sales": 13.99,
    "gross_sales": 19.99,
    "refund_amount": null,
    "is_canceled": false,
    "is_refunded": false,
    "is_returned": false,
    "latitude": 37.9743,
    "longitude": -121.3154
  },
  {
    "order_id": "576592617386054264",
    "reporting_date": "2024-02-29",
    "customer_id": "yolandaaguirre53",
    "source_type": "Sales",
    "city": "Joshua Tree",
    "state": "California",
    "state_code": "CA",
    "zipcode": "92252",
    "units_sold": 1,
    "order_sales": 24.49,
    "gross_sales": 34.99,
    "refund_amount": null,
    "is_canceled": false,
    "is_refunded": false,
    "is_returned": false,
    "latitude": 34.1502,
    "longitude": -116.3038
  },
  {
    "order_id": "576592575400022335",
    "reporting_date": "2024-02-29",
    "customer_id": "marixachicha",
    "source_type": "Sales",
    "city": "Olathe",
    "state": "Kansas",
    "state_code": "KS",
    "zipcode": "66061",
    "units_sold": 1,
    "order_sales": 24.49,
    "gross_sales": 34.99,
    "refund_amount": null,
    "is_canceled": false,
    "is_refunded": false,
    "is_returned": false,
    "latitude": 38.8865,
    "longitude": -94.8204
  },
  {
    "order_id": "576592624720122753",
    "reporting_date": "2024-02-29",
    "customer_id": "Angel Moua",
    "source_type": "Sales",
    "city": "Monroe",
    "state": "Georgia",
    "state_code": "GA",
    "zipcode": "30655",
    "units_sold": 1,
    "order_sales": 13.99,
    "gross_sales": 19.99,
    "refund_amount": null,
    "is_canceled": false,
    "is_refunded": false,
    "is_returned": false,
    "latitude": 33.7883,
    "longitude": -83.7013
  },
  {
    "order_id": "576592572554711942",
    "reporting_date": "2024-02-29",
    "customer_id": "nsjostrand630",
    "source_type": "Sales",
    "city": "Clovis",
    "state": "California",
    "state_code": "CA",
    "zipcode": "93612",
    "units_sold": 1,
    "order_sales": 13.99,
    "gross_sales": 19.99,
    "refund_amount": null,
    "is_canceled": false,
    "is_refunded": false,
    "is_returned": false,
    "latitude": 36.8149,
    "longitude": -119.7106
  },
  {
    "order_id": "576592558025707525",
    "reporting_date": "2024-02-29",
    "customer_id": "t_bizzz",
    "source_type": "Sales",
    "city": "Denver",
    "state": "Colorado",
    "state_code": "CO",
    "zipcode": "80235",
    "units_sold": 1,
    "order_sales": 24.49,
    "gross_sales": 34.99,
    "refund_amount": null,
    "is_canceled": false,
    "is_refunded": false,
    "is_returned": false,
    "latitude": 39.6472,
    "longitude": -105.0795
  },
  {
    "order_id": "576592560167162030",
    "reporting_date": "2024-02-29",
    "customer_id": "picklespucker00",
    "source_type": "Sales",
    "city": "Roswell",
    "state": "Georgia",
    "state_code": "GA",
    "zipcode": "30075",
    "units_sold": 1,
    "order_sales": 34.99,
    "gross_sales": 34.99,
    "refund_amount": null,
    "is_canceled": false,
    "is_refunded": false,
    "is_returned": false,
    "latitude": 34.0408,
    "longitude": -84.3859
  },
  {
    "order_id": "576592559844463065",
    "reporting_date": "2024-02-29",
    "customer_id": "eisles76",
    "source_type": "Sales",
    "city": "Los Banos",
    "state": "California",
    "state_code": "CA",
    "zipcode": "93635",
    "units_sold": 1,
    "order_sales": 11.99,
    "gross_sales": 19.99,
    "refund_amount": null,
    "is_canceled": false,
    "is_refunded": false,
    "is_returned": false,
    "latitude": 37.0627,
    "longitude": -120.8544
  },
  {
    "order_id": "576592559558070629",
    "reporting_date": "2024-02-29",
    "customer_id": "1nurse_luna",
    "source_type": "Sales",
    "city": "Barstow",
    "state": "California",
    "state_code": "CA",
    "zipcode": "92311",
    "units_sold": 1,
    "order_sales": 34.99,
    "gross_sales": 49.99,
    "refund_amount": null,
    "is_canceled": false,
    "is_refunded": false,
    "is_returned": false,
    "latitude": 34.8914,
    "longitude": -117.0387
  },
  {
    "order_id": "576592708381610900",
    "reporting_date": "2024-02-29",
    "customer_id": "yaamiigurrolaa",
    "source_type": "Sales",
    "city": "Tulare",
    "state": "California",
    "state_code": "CA",
    "zipcode": "93274",
    "units_sold": 1,
    "order_sales": 20.99,
    "gross_sales": 34.99,
    "refund_amount": null,
    "is_canceled": false,
    "is_refunded": false,
    "is_returned": false,
    "latitude": 36.2022,
    "longitude": -119.338
  },
  {
    "order_id": "576592558983058350",
    "reporting_date": "2024-02-29",
    "customer_id": "bamagigi256",
    "source_type": "Sales",
    "city": "Huntsville",
    "state": "Alabama",
    "state_code": "AL",
    "zipcode": "35802",
    "units_sold": 1,
    "order_sales": 19.99,
    "gross_sales": 19.99,
    "refund_amount": null,
    "is_canceled": false,
    "is_refunded": false,
    "is_returned": false,
    "latitude": 34.6679,
    "longitude": -86.5603
  },
  {
    "order_id": "576592558393168583",
    "reporting_date": "2024-02-29",
    "customer_id": "bethgonzales01",
    "source_type": "Sales",
    "city": "Corpus Christi",
    "state": "Texas",
    "state_code": "TX",
    "zipcode": "78415",
    "units_sold": 1,
    "order_sales": 13.99,
    "gross_sales": 19.99,
    "refund_amount": null,
    "is_canceled": false,
    "is_refunded": false,
    "is_returned": false,
    "latitude": 27.7262,
    "longitude": -97.4078
  },
  {
    "order_id": "576592558057296028",
    "reporting_date": "2024-02-29",
    "customer_id": "yadig077",
    "source_type": "Sales",
    "city": "Odessa",
    "state": "Texas",
    "state_code": "TX",
    "zipcode": "79765",
    "units_sold": 1,
    "order_sales": 34.99,
    "gross_sales": 34.99,
    "refund_amount": null,
    "is_canceled": false,
    "is_refunded": false,
    "is_returned": false,
    "latitude": 31.9375,
    "longitude": -102.3944
  },
  {
    "order_id": "576592557564072582",
    "reporting_date": "2024-02-29",
    "customer_id": "mininayaya",
    "source_type": "Sales",
    "city": "Tucson",
    "state": "Arizona",
    "state_code": "AZ",
    "zipcode": "85756",
    "units_sold": 1,
    "order_sales": 49.99,
    "gross_sales": 49.99,
    "refund_amount": null,
    "is_canceled": false,
    "is_refunded": false,
    "is_returned": false,
    "latitude": 32.0839,
    "longitude": -110.9004
  },
  {
    "order_id": "576592560606974263",
    "reporting_date": "2024-02-29",
    "customer_id": "cassandranieto",
    "source_type": "Sales",
    "city": "Great Falls",
    "state": "Montana",
    "state_code": "MT",
    "zipcode": "59405",
    "units_sold": 1,
    "order_sales": 19.99,
    "gross_sales": 19.99,
    "refund_amount": null,
    "is_canceled": false,
    "is_refunded": false,
    "is_returned": false,
    "latitude": 47.495,
    "longitude": -111.2502
  },
  {
    "order_id": "576592557545001495",
    "reporting_date": "2024-02-29",
    "customer_id": "noel_jane24",
    "source_type": "Sales",
    "city": "Selah",
    "state": "Washington",
    "state_code": "WA",
    "zipcode": "98942",
    "units_sold": 1,
    "order_sales": 13.99,
    "gross_sales": 19.99,
    "refund_amount": null,
    "is_canceled": false,
    "is_refunded": false,
    "is_returned": false,
    "latitude": 46.6767,
    "longitude": -120.5408
  },
  {
    "order_id": "576592557482742321",
    "reporting_date": "2024-02-29",
    "customer_id": "aurelioayala40",
    "source_type": "Sales",
    "city": "Castroville",
    "state": "Texas",
    "state_code": "TX",
    "zipcode": "78009",
    "units_sold": 1,
    "order_sales": 24.99,
    "gross_sales": 34.99,
    "refund_amount": null,
    "is_canceled": false,
    "is_refunded": false,
    "is_returned": false,
    "latitude": 29.3553,
    "longitude": -98.8824
  },
  {
    "order_id": "576592557424284642",
    "reporting_date": "2024-02-29",
    "customer_id": "amariebennett1",
    "source_type": "Sales",
    "city": "San Antonio",
    "state": "Texas",
    "state_code": "TX",
    "zipcode": "78245",
    "units_sold": 1,
    "order_sales": 34.99,
    "gross_sales": 34.99,
    "refund_amount": null,
    "is_canceled": false,
    "is_refunded": false,
    "is_returned": false,
    "latitude": 29.4189,
    "longitude": -98.6895
  },
  {
    "order_id": "576592557158601502",
    "reporting_date": "2024-02-29",
    "customer_id": "zeroaffect007",
    "source_type": "Sales",
    "city": "Bakersfield",
    "state": "California",
    "state_code": "CA",
    "zipcode": "93312",
    "units_sold": 1,
    "order_sales": 34.99,
    "gross_sales": 34.99,
    "refund_amount": null,
    "is_canceled": false,
    "is_refunded": false,
    "is_returned": false,
    "latitude": 35.3935,
    "longitude": -119.1205
  },
  {
    "order_id": "576592556827775000",
    "reporting_date": "2024-02-29",
    "customer_id": "fbkwashington",
    "source_type": "Sales",
    "city": "North Providence",
    "state": "Rhode Island",
    "state_code": "RI",
    "zipcode": "02904",
    "units_sold": 1,
    "order_sales": 13.99,
    "gross_sales": 19.99,
    "refund_amount": null,
    "is_canceled": false,
    "is_refunded": false,
    "is_returned": false,
    "latitude": 41.8541,
    "longitude": -71.4378
  },
  {
    "order_id": "576592572366753949",
    "reporting_date": "2024-02-29",
    "customer_id": "honey76badger",
    "source_type": "Sales",
    "city": "Pendleton",
    "state": "Oregon",
    "state_code": "OR",
    "zipcode": "97801",
    "units_sold": 1,
    "order_sales": 24.49,
    "gross_sales": 34.99,
    "refund_amount": null,
    "is_canceled": false,
    "is_refunded": false,
    "is_returned": false,
    "latitude": 45.6605,
    "longitude": -118.7831
  },
  {
    "order_id": "576592717078565382",
    "reporting_date": "2024-02-29",
    "customer_id": "chrisfields29",
    "source_type": "Sales",
    "city": "Wallace",
    "state": "South Carolina",
    "state_code": "SC",
    "zipcode": "29596",
    "units_sold": 1,
    "order_sales": 34.99,
    "gross_sales": 34.99,
    "refund_amount": null,
    "is_canceled": false,
    "is_refunded": false,
    "is_returned": false,
    "latitude": 34.7307,
    "longitude": -79.8011
  },
  {
    "order_id": "576592560410366077",
    "reporting_date": "2024-02-29",
    "customer_id": "anagonzales005",
    "source_type": "Sales",
    "city": "Irwindale",
    "state": "California",
    "state_code": "CA",
    "zipcode": "91702",
    "units_sold": 1,
    "order_sales": 34.99,
    "gross_sales": 34.99,
    "refund_amount": null,
    "is_canceled": false,
    "is_refunded": false,
    "is_returned": false,
    "latitude": 34.1248,
    "longitude": -117.9031
  },
  {
    "order_id": "576592558038225694",
    "reporting_date": "2024-02-29",
    "customer_id": "christinacotton74",
    "source_type": "Sales",
    "city": "Modesto",
    "state": "California",
    "state_code": "CA",
    "zipcode": "95350",
    "units_sold": 1,
    "order_sales": 19.99,
    "gross_sales": 19.99,
    "refund_amount": null,
    "is_canceled": false,
    "is_refunded": false,
    "is_returned": false,
    "latitude": 37.6746,
    "longitude": -121.0113
  },
  {
    "order_id": "576592560946254345",
    "reporting_date": "2024-02-29",
    "customer_id": "duveljamison",
    "source_type": "Sales",
    "city": "Los Angeles",
    "state": "California",
    "state_code": "CA",
    "zipcode": "90003",
    "units_sold": 1,
    "order_sales": 24.49,
    "gross_sales": 34.99,
    "refund_amount": null,
    "is_canceled": false,
    "is_refunded": false,
    "is_returned": false,
    "latitude": 33.9653,
    "longitude": -118.2727
  },
  {
    "order_id": "576592565419151570",
    "reporting_date": "2024-02-29",
    "customer_id": "bumblebeekzmz",
    "source_type": "Sales",
    "city": "Delta",
    "state": "Colorado",
    "state_code": "CO",
    "zipcode": "81416",
    "units_sold": 1,
    "order_sales": 13.99,
    "gross_sales": 19.99,
    "refund_amount": null,
    "is_canceled": false,
    "is_refunded": false,
    "is_returned": false,
    "latitude": 38.7349,
    "longitude": -108.0604
  },
  {
    "order_id": "576592572063912097",
    "reporting_date": "2024-02-29",
    "customer_id": "caliblessed79",
    "source_type": "Sales",
    "city": "Corona",
    "state": "California",
    "state_code": "CA",
    "zipcode": "92882",
    "units_sold": 1,
    "order_sales": 34.99,
    "gross_sales": 34.99,
    "refund_amount": null,
    "is_canceled": false,
    "is_refunded": false,
    "is_returned": false,
    "latitude": 33.8419,
    "longitude": -117.6043
  },
  {
    "order_id": "576592570868404636",
    "reporting_date": "2024-02-29",
    "customer_id": "palaciomichelle",
    "source_type": "Sales",
    "city": "Tucson",
    "state": "Arizona",
    "state_code": "AZ",
    "zipcode": "85743",
    "units_sold": 1,
    "order_sales": 34.99,
    "gross_sales": 34.99,
    "refund_amount": null,
    "is_canceled": false,
    "is_refunded": false,
    "is_returned": false,
    "latitude": 32.3366,
    "longitude": -111.1771
  },
  {
    "order_id": "576592704001315569",
    "reporting_date": "2024-02-29",
    "customer_id": "catalinaesquivel84",
    "source_type": "Sales",
    "city": "Torrance",
    "state": "California",
    "state_code": "CA",
    "zipcode": "90505",
    "units_sold": 1,
    "order_sales": 19.99,
    "gross_sales": 19.99,
    "refund_amount": null,
    "is_canceled": false,
    "is_refunded": false,
    "is_returned": false,
    "latitude": 33.8106,
    "longitude": -118.3507
  },
  {
    "order_id": "576592570669175366",
    "reporting_date": "2024-02-29",
    "customer_id": "chpmunk112",
    "source_type": "Sales",
    "city": "Los Angeles",
    "state": "California",
    "state_code": "CA",
    "zipcode": "90043",
    "units_sold": 1,
    "order_sales": 13.99,
    "gross_sales": 19.99,
    "refund_amount": null,
    "is_canceled": false,
    "is_refunded": false,
    "is_returned": false,
    "latitude": 33.9871,
    "longitude": -118.3321
  },
  {
    "order_id": "576592700991574655",
    "reporting_date": "2024-02-29",
    "customer_id": "jamonit_21",
    "source_type": "Sales",
    "city": "Albuquerque",
    "state": "New Mexico",
    "state_code": "NM",
    "zipcode": "87123",
    "units_sold": 1,
    "order_sales": 24.49,
    "gross_sales": 34.99,
    "refund_amount": null,
    "is_canceled": false,
    "is_refunded": false,
    "is_returned": false,
    "latitude": 35.0717,
    "longitude": -106.509
  },
  {
    "order_id": "576592567530852456",
    "reporting_date": "2024-02-29",
    "customer_id": "elsa1070",
    "source_type": "Sales",
    "city": "San Pedro",
    "state": "California",
    "state_code": "CA",
    "zipcode": "90731",
    "units_sold": 1,
    "order_sales": 24.49,
    "gross_sales": 34.99,
    "refund_amount": null,
    "is_canceled": false,
    "is_refunded": false,
    "is_returned": false,
    "latitude": 33.7339,
    "longitude": -118.2914
  },
  {
    "order_id": "576592566127072247",
    "reporting_date": "2024-02-29",
    "customer_id": "glenn.harris81",
    "source_type": "Sales",
    "city": "Moreno Valley",
    "state": "California",
    "state_code": "CA",
    "zipcode": "92555",
    "units_sold": 1,
    "order_sales": 24.49,
    "gross_sales": 34.99,
    "refund_amount": null,
    "is_canceled": false,
    "is_refunded": false,
    "is_returned": false,
    "latitude": 33.9377,
    "longitude": -117.1851
  },
  {
    "order_id": "576592565461160478",
    "reporting_date": "2024-02-29",
    "customer_id": "Tiffany Fullum",
    "source_type": "Sales",
    "city": "Rancho Cordova",
    "state": "California",
    "state_code": "CA",
    "zipcode": "95670",
    "units_sold": 1,
    "order_sales": 13.99,
    "gross_sales": 19.99,
    "refund_amount": null,
    "is_canceled": false,
    "is_refunded": false,
    "is_returned": false,
    "latitude": 38.6072,
    "longitude": -121.2761
  },
  {
    "order_id": "576592567114175148",
    "reporting_date": "2024-02-29",
    "customer_id": "kkiizzyy0",
    "source_type": "Sales",
    "city": "North Las Vegas",
    "state": "Nevada",
    "state_code": "NV",
    "zipcode": "89032",
    "units_sold": 1,
    "order_sales": 24.49,
    "gross_sales": 34.99,
    "refund_amount": null,
    "is_canceled": false,
    "is_refunded": false,
    "is_returned": false,
    "latitude": 36.218,
    "longitude": -115.1709
  },
  {
    "order_id": "576592564043748331",
    "reporting_date": "2024-02-29",
    "customer_id": "mitchdlc",
    "source_type": "Sales",
    "city": "El Paso",
    "state": "Texas",
    "state_code": "TX",
    "zipcode": "79936",
    "units_sold": 1,
    "order_sales": 34.99,
    "gross_sales": 49.99,
    "refund_amount": null,
    "is_canceled": false,
    "is_refunded": false,
    "is_returned": false,
    "latitude": 31.7677,
    "longitude": -106.3016
  },
  {
    "order_id": "576592562840113673",
    "reporting_date": "2024-02-29",
    "customer_id": "pjd409",
    "source_type": "Sales",
    "city": "Westerville",
    "state": "Ohio",
    "state_code": "OH",
    "zipcode": "43081",
    "units_sold": 1,
    "order_sales": 34.99,
    "gross_sales": 34.99,
    "refund_amount": null,
    "is_canceled": false,
    "is_refunded": false,
    "is_returned": false,
    "latitude": 40.1146,
    "longitude": -82.9105
  },
  {
    "order_id": "576592702188458553",
    "reporting_date": "2024-02-29",
    "customer_id": "babyanka1",
    "source_type": "Sales",
    "city": "Jurupa Valley",
    "state": "California",
    "state_code": "CA",
    "zipcode": "92509",
    "units_sold": 1,
    "order_sales": 34.99,
    "gross_sales": 34.99,
    "refund_amount": null,
    "is_canceled": false,
    "is_refunded": false,
    "is_returned": false,
    "latitude": 34.0033,
    "longitude": -117.445
  },
  {
    "order_id": "576592561615246068",
    "reporting_date": "2024-02-29",
    "customer_id": "therealjdmc",
    "source_type": "Sales",
    "city": "Simi Valley",
    "state": "California",
    "state_code": "CA",
    "zipcode": "93065",
    "units_sold": 1,
    "order_sales": 34.99,
    "gross_sales": 49.99,
    "refund_amount": null,
    "is_canceled": false,
    "is_refunded": false,
    "is_returned": false,
    "latitude": 34.2656,
    "longitude": -118.7653
  },
  {
    "order_id": "576592564635603878",
    "reporting_date": "2024-02-29",
    "customer_id": "frances_bustos",
    "source_type": "Sales",
    "city": "Mesquite",
    "state": "Texas",
    "state_code": "TX",
    "zipcode": "75150",
    "units_sold": 1,
    "order_sales": 13.99,
    "gross_sales": 19.99,
    "refund_amount": null,
    "is_canceled": false,
    "is_refunded": false,
    "is_returned": false,
    "latitude": 32.8154,
    "longitude": -96.6307
  },
  {
    "order_id": "576592561598862202",
    "reporting_date": "2024-02-29",
    "customer_id": "rolulugochavez",
    "source_type": "Sales",
    "city": "Chicago",
    "state": "Illinois",
    "state_code": "IL",
    "zipcode": "60660",
    "units_sold": 1,
    "order_sales": 24.49,
    "gross_sales": 34.99,
    "refund_amount": null,
    "is_canceled": false,
    "is_refunded": false,
    "is_returned": false,
    "latitude": 41.9909,
    "longitude": -87.6629
  },
  {
    "order_id": "576592561569567583",
    "reporting_date": "2024-02-29",
    "customer_id": "andreaschleinz",
    "source_type": "Sales",
    "city": "Madison",
    "state": "Wisconsin",
    "state_code": "WI",
    "zipcode": "53714",
    "units_sold": 1,
    "order_sales": 24.49,
    "gross_sales": 34.99,
    "refund_amount": null,
    "is_canceled": false,
    "is_refunded": false,
    "is_returned": false,
    "latitude": 43.0977,
    "longitude": -89.3118
  },
  {
    "order_id": "576591816389857786",
    "reporting_date": "2024-02-28",
    "customer_id": "gillespiemadecreations",
    "source_type": "Sales",
    "city": "Holbrook",
    "state": "Arizona",
    "state_code": "AZ",
    "zipcode": "86025",
    "units_sold": 1,
    "order_sales": 34.99,
    "gross_sales": 34.99,
    "refund_amount": null,
    "is_canceled": false,
    "is_refunded": false,
    "is_returned": false,
    "latitude": 34.9085,
    "longitude": -110.1434
  },
  {
    "order_id": "576591822133760607",
    "reporting_date": "2024-02-28",
    "customer_id": "jenniferwolanczyk",
    "source_type": "Sales",
    "city": "Chicago",
    "state": "Illinois",
    "state_code": "IL",
    "zipcode": "60660",
    "units_sold": 1,
    "order_sales": 24.49,
    "gross_sales": 34.99,
    "refund_amount": null,
    "is_canceled": false,
    "is_refunded": false,
    "is_returned": false,
    "latitude": 41.9909,
    "longitude": -87.6629
  },
  {
    "order_id": "576591826983686710",
    "reporting_date": "2024-02-28",
    "customer_id": "auntnita7",
    "source_type": "Sales",
    "city": "Katy",
    "state": "Texas",
    "state_code": "TX",
    "zipcode": "77450",
    "units_sold": 1,
    "order_sales": 34.99,
    "gross_sales": 49.99,
    "refund_amount": null,
    "is_canceled": false,
    "is_refunded": false,
    "is_returned": false,
    "latitude": 29.745,
    "longitude": -95.7326
  },
  {
    "order_id": "576591825442672857",
    "reporting_date": "2024-02-28",
    "customer_id": "gwscherrytree",
    "source_type": "Sales",
    "city": "Altamonte Springs",
    "state": "Florida",
    "state_code": "FL",
    "zipcode": "32701",
    "units_sold": 1,
    "order_sales": 49.99,
    "gross_sales": 49.99,
    "refund_amount": null,
    "is_canceled": false,
    "is_refunded": false,
    "is_returned": false,
    "latitude": 28.6666,
    "longitude": -81.365
  },
  {
    "order_id": "576591815567708177",
    "reporting_date": "2024-02-28",
    "customer_id": "bluzie40",
    "source_type": "Sales",
    "city": "Stockbridge",
    "state": "Georgia",
    "state_code": "GA",
    "zipcode": "30281",
    "units_sold": 1,
    "order_sales": 13.99,
    "gross_sales": 19.99,
    "refund_amount": null,
    "is_canceled": false,
    "is_refunded": false,
    "is_returned": false,
    "latitude": 33.5633,
    "longitude": -84.2165
  },
  {
    "order_id": "576591822064816341",
    "reporting_date": "2024-02-28",
    "customer_id": "lisavgable",
    "source_type": "Sales",
    "city": "Santa Clarita",
    "state": "California",
    "state_code": "CA",
    "zipcode": "91355",
    "units_sold": 1,
    "order_sales": 34.99,
    "gross_sales": 34.99,
    "refund_amount": null,
    "is_canceled": false,
    "is_refunded": false,
    "is_returned": false,
    "latitude": 34.3985,
    "longitude": -118.5535
  },
  {
    "order_id": "576591822124913213",
    "reporting_date": "2024-02-28",
    "customer_id": "laladyboss1",
    "source_type": "Sales",
    "city": "New Rochelle",
    "state": "New York",
    "state_code": "NY",
    "zipcode": "10801",
    "units_sold": 1,
    "order_sales": 34.99,
    "gross_sales": 49.99,
    "refund_amount": null,
    "is_canceled": false,
    "is_refunded": false,
    "is_returned": false,
    "latitude": 40.9166,
    "longitude": -73.7877
  },
  {
    "order_id": "576591817871691833",
    "reporting_date": "2024-02-28",
    "customer_id": "mooreinspections",
    "source_type": "Sales",
    "city": "College Station",
    "state": "Texas",
    "state_code": "TX",
    "zipcode": "77845",
    "units_sold": 1,
    "order_sales": 34.99,
    "gross_sales": 34.99,
    "refund_amount": null,
    "is_canceled": false,
    "is_refunded": false,
    "is_returned": false,
    "latitude": 30.5118,
    "longitude": -96.3171
  },
  {
    "order_id": "576591830464631394",
    "reporting_date": "2024-02-28",
    "customer_id": "martinezilla",
    "source_type": "Sales",
    "city": "Muldrow",
    "state": "Oklahoma",
    "state_code": "OK",
    "zipcode": "74948",
    "units_sold": 1,
    "order_sales": 19.99,
    "gross_sales": 19.99,
    "refund_amount": null,
    "is_canceled": false,
    "is_refunded": false,
    "is_returned": false,
    "latitude": 35.402,
    "longitude": -94.6332
  },
  {
    "order_id": "576591829132284765",
    "reporting_date": "2024-02-28",
    "customer_id": "octodad449",
    "source_type": "Sales",
    "city": "Alsip",
    "state": "Illinois",
    "state_code": "IL",
    "zipcode": "60803",
    "units_sold": 1,
    "order_sales": 34.99,
    "gross_sales": 34.99,
    "refund_amount": null,
    "is_canceled": false,
    "is_refunded": false,
    "is_returned": false,
    "latitude": 41.6721,
    "longitude": -87.7357
  },
  {
    "order_id": "576591843562983534",
    "reporting_date": "2024-02-28",
    "customer_id": "theseahagg",
    "source_type": "Sales",
    "city": "Brentwood",
    "state": "California",
    "state_code": "CA",
    "zipcode": "94513",
    "units_sold": 1,
    "order_sales": 34.99,
    "gross_sales": 49.99,
    "refund_amount": null,
    "is_canceled": false,
    "is_refunded": false,
    "is_returned": false,
    "latitude": 37.9324,
    "longitude": -121.6894
  },
  {
    "order_id": "576591831489811250",
    "reporting_date": "2024-02-28",
    "customer_id": "oculusprimevr2020",
    "source_type": "Sales",
    "city": "Woolwich Township",
    "state": "New Jersey",
    "state_code": "NJ",
    "zipcode": "08085",
    "units_sold": 1,
    "order_sales": 13.99,
    "gross_sales": 19.99,
    "refund_amount": null,
    "is_canceled": false,
    "is_refunded": false,
    "is_returned": false,
    "latitude": 39.7529,
    "longitude": -75.3362
  },
  {
    "order_id": "576591832314712185",
    "reporting_date": "2024-02-28",
    "customer_id": "777_laurita",
    "source_type": "Sales",
    "city": "Fort Collins",
    "state": "Colorado",
    "state_code": "CO",
    "zipcode": "80521",
    "units_sold": 1,
    "order_sales": 49.99,
    "gross_sales": 49.99,
    "refund_amount": null,
    "is_canceled": false,
    "is_refunded": false,
    "is_returned": false,
    "latitude": 40.5813,
    "longitude": -105.1039
  },
  {
    "order_id": "576591833562452311",
    "reporting_date": "2024-02-28",
    "customer_id": "stepheroni10",
    "source_type": "Sales",
    "city": "Cape Coral",
    "state": "Florida",
    "state_code": "FL",
    "zipcode": "33909",
    "units_sold": 1,
    "order_sales": 34.99,
    "gross_sales": 34.99,
    "refund_amount": null,
    "is_canceled": false,
    "is_refunded": false,
    "is_returned": false,
    "latitude": 26.6939,
    "longitude": -81.9452
  },
  {
    "order_id": "576591835189318073",
    "reporting_date": "2024-02-28",
    "customer_id": "erikacasillas189",
    "source_type": "Sales",
    "city": "Inglewood",
    "state": "California",
    "state_code": "CA",
    "zipcode": "90301",
    "units_sold": 1,
    "order_sales": 24.49,
    "gross_sales": 34.99,
    "refund_amount": null,
    "is_canceled": false,
    "is_refunded": false,
    "is_returned": false,
    "latitude": 33.955,
    "longitude": -118.3556
  },
  {
    "order_id": "576591840986829001",
    "reporting_date": "2024-02-28",
    "customer_id": "kole2727",
    "source_type": "Sales",
    "city": "Coal City",
    "state": "Illinois",
    "state_code": "IL",
    "zipcode": "60416",
    "units_sold": 1,
    "order_sales": 19.99,
    "gross_sales": 19.99,
    "refund_amount": null,
    "is_canceled": false,
    "is_refunded": false,
    "is_returned": false,
    "latitude": 41.2908,
    "longitude": -88.2823
  },
  {
    "order_id": "576591841356059253",
    "reporting_date": "2024-02-28",
    "customer_id": "hannahlove1108",
    "source_type": "Sales",
    "city": "Edcouch",
    "state": "Texas",
    "state_code": "TX",
    "zipcode": "78538",
    "units_sold": 1,
    "order_sales": 34.99,
    "gross_sales": 34.99,
    "refund_amount": null,
    "is_canceled": false,
    "is_refunded": false,
    "is_returned": false,
    "latitude": 26.3328,
    "longitude": -97.9622
  },
  {
    "order_id": "576591843961967479",
    "reporting_date": "2024-02-28",
    "customer_id": "krazydaisy1226",
    "source_type": "Sales",
    "city": "Peoria",
    "state": "Arizona",
    "state_code": "AZ",
    "zipcode": "85383",
    "units_sold": 1,
    "order_sales": 34.99,
    "gross_sales": 34.99,
    "refund_amount": null,
    "is_canceled": false,
    "is_refunded": false,
    "is_returned": false,
    "latitude": 33.7169,
    "longitude": -112.238
  },
  {
    "order_id": "576591850080604414",
    "reporting_date": "2024-02-28",
    "customer_id": "pitnlala",
    "source_type": "Sales",
    "city": "Denver",
    "state": "Colorado",
    "state_code": "CO",
    "zipcode": "80236",
    "units_sold": 1,
    "order_sales": 34.99,
    "gross_sales": 49.99,
    "refund_amount": null,
    "is_canceled": false,
    "is_refunded": false,
    "is_returned": false,
    "latitude": 39.6535,
    "longitude": -105.0376
  },
  {
    "order_id": "576591813250290405",
    "reporting_date": "2024-02-28",
    "customer_id": "angeldavison35",
    "source_type": "Sales",
    "city": "Albuquerque",
    "state": "New Mexico",
    "state_code": "NM",
    "zipcode": "87121",
    "units_sold": 1,
    "order_sales": 19.99,
    "gross_sales": 19.99,
    "refund_amount": null,
    "is_canceled": false,
    "is_refunded": false,
    "is_returned": false,
    "latitude": 35.0512,
    "longitude": -106.7269
  },
  {
    "order_id": "576591850393800792",
    "reporting_date": "2024-02-28",
    "customer_id": "sinsyl",
    "source_type": "Sales",
    "city": "Bakersfield",
    "state": "California",
    "state_code": "CA",
    "zipcode": "93308",
    "units_sold": 1,
    "order_sales": 34.99,
    "gross_sales": 34.99,
    "refund_amount": null,
    "is_canceled": false,
    "is_refunded": false,
    "is_returned": false,
    "latitude": 35.4244,
    "longitude": -119.0433
  },
  {
    "order_id": "576591814955930556",
    "reporting_date": "2024-02-28",
    "customer_id": "shell17176",
    "source_type": "Sales",
    "city": "Pisinemo",
    "state": "Arizona",
    "state_code": "AZ",
    "zipcode": "85634",
    "units_sold": 1,
    "order_sales": 13.99,
    "gross_sales": 19.99,
    "refund_amount": null,
    "is_canceled": false,
    "is_refunded": false,
    "is_returned": false,
    "latitude": 32.0315,
    "longitude": -112.0065
  },
  {
    "order_id": "576591793056617417",
    "reporting_date": "2024-02-28",
    "customer_id": "mr.rudyman",
    "source_type": "Sales",
    "city": "Wyoming",
    "state": "Michigan",
    "state_code": "MI",
    "zipcode": "49509",
    "units_sold": 1,
    "order_sales": 34.99,
    "gross_sales": 49.99,
    "refund_amount": null,
    "is_canceled": false,
    "is_refunded": false,
    "is_returned": false,
    "latitude": 42.9134,
    "longitude": -85.7053
  },
  {
    "order_id": "576591810991854342",
    "reporting_date": "2024-02-28",
    "customer_id": "hearyeebeeryee61",
    "source_type": "Sales",
    "city": "Belvidere",
    "state": "Illinois",
    "state_code": "IL",
    "zipcode": "61008",
    "units_sold": 1,
    "order_sales": 49.99,
    "gross_sales": 49.99,
    "refund_amount": null,
    "is_canceled": false,
    "is_refunded": false,
    "is_returned": false,
    "latitude": 42.2595,
    "longitude": -88.8509
  },
  {
    "order_id": "576591810849706644",
    "reporting_date": "2024-02-28",
    "customer_id": "chelitabonita527",
    "source_type": "Sales",
    "city": "Chesapeake",
    "state": "Virginia",
    "state_code": "VA",
    "zipcode": "23320",
    "units_sold": 1,
    "order_sales": 34.99,
    "gross_sales": 34.99,
    "refund_amount": null,
    "is_canceled": false,
    "is_refunded": false,
    "is_returned": false,
    "latitude": 36.7352,
    "longitude": -76.2384
  },
  {
    "order_id": "576591851304554788",
    "reporting_date": "2024-02-28",
    "customer_id": "jbuiltdesigns",
    "source_type": "Sales",
    "city": "Williston",
    "state": "North Dakota",
    "state_code": "ND",
    "zipcode": "58801",
    "units_sold": 1,
    "order_sales": 34.99,
    "gross_sales": 34.99,
    "refund_amount": null,
    "is_canceled": false,
    "is_refunded": false,
    "is_returned": false,
    "latitude": 48.2257,
    "longitude": -103.649
  },
  {
    "order_id": "576591777895846727",
    "reporting_date": "2024-02-28",
    "customer_id": "user4684151889196",
    "source_type": "Sales",
    "city": "Scottsdale",
    "state": "Arizona",
    "state_code": "AZ",
    "zipcode": "85255",
    "units_sold": 1,
    "order_sales": 24.49,
    "gross_sales": 34.99,
    "refund_amount": null,
    "is_canceled": false,
    "is_refunded": false,
    "is_returned": false,
    "latitude": 33.6968,
    "longitude": -111.8892
  },
  {
    "order_id": "576591778453295568",
    "reporting_date": "2024-02-28",
    "customer_id": "ogmommadukes",
    "source_type": "Sales",
    "city": "Kinder",
    "state": "Louisiana",
    "state_code": "LA",
    "zipcode": "70648",
    "units_sold": 1,
    "order_sales": 34.99,
    "gross_sales": 34.99,
    "refund_amount": null,
    "is_canceled": false,
    "is_refunded": false,
    "is_returned": false,
    "latitude": 30.4607,
    "longitude": -92.8693
  },
  {
    "order_id": "576591783408341803",
    "reporting_date": "2024-02-28",
    "customer_id": "lexnicgin143",
    "source_type": "Sales",
    "city": "Fairfield",
    "state": "California",
    "state_code": "CA",
    "zipcode": "94533",
    "units_sold": 1,
    "order_sales": 24.49,
    "gross_sales": 34.99,
    "refund_amount": null,
    "is_canceled": false,
    "is_refunded": false,
    "is_returned": false,
    "latitude": 38.2671,
    "longitude": -122.0357
  },
  {
    "order_id": "576591788988862654",
    "reporting_date": "2024-02-28",
    "customer_id": "theprodigalson126",
    "source_type": "Sales",
    "city": "Los Angeles",
    "state": "California",
    "state_code": "CA",
    "zipcode": "90061",
    "units_sold": 1,
    "order_sales": 34.99,
    "gross_sales": 34.99,
    "refund_amount": null,
    "is_canceled": false,
    "is_refunded": false,
    "is_returned": false,
    "latitude": 33.9245,
    "longitude": -118.2716
  },
  {
    "order_id": "576591793947972363",
    "reporting_date": "2024-02-28",
    "customer_id": "jryanttu",
    "source_type": "Sales",
    "city": "Decatur",
    "state": "Texas",
    "state_code": "TX",
    "zipcode": "76234",
    "units_sold": 1,
    "order_sales": 19.99,
    "gross_sales": 19.99,
    "refund_amount": null,
    "is_canceled": false,
    "is_refunded": false,
    "is_returned": false,
    "latitude": 33.2351,
    "longitude": -97.574
  },
  {
    "order_id": "576591794508698121",
    "reporting_date": "2024-02-28",
    "customer_id": "flipxicana33",
    "source_type": "Sales",
    "city": "Victorville",
    "state": "California",
    "state_code": "CA",
    "zipcode": "92392",
    "units_sold": 1,
    "order_sales": 13.99,
    "gross_sales": 19.99,
    "refund_amount": null,
    "is_canceled": false,
    "is_refunded": false,
    "is_returned": false,
    "latitude": 34.4802,
    "longitude": -117.4082
  },
  {
    "order_id": "576591796672697200",
    "reporting_date": "2024-02-28",
    "customer_id": "r.genos",
    "source_type": "Sales",
    "city": "Spring",
    "state": "Texas",
    "state_code": "TX",
    "zipcode": "77380",
    "units_sold": 1,
    "order_sales": 34.99,
    "gross_sales": 34.99,
    "refund_amount": null,
    "is_canceled": false,
    "is_refunded": false,
    "is_returned": false,
    "latitude": 30.1441,
    "longitude": -95.4703
  },
  {
    "order_id": "576591796969443997",
    "reporting_date": "2024-02-28",
    "customer_id": "d.fausto",
    "source_type": "Sales",
    "city": "Pleasant Grove",
    "state": "Utah",
    "state_code": "UT",
    "zipcode": "84062",
    "units_sold": 1,
    "order_sales": 19.99,
    "gross_sales": 19.99,
    "refund_amount": null,
    "is_canceled": false,
    "is_refunded": false,
    "is_returned": false,
    "latitude": 40.372,
    "longitude": -111.7333
  },
  {
    "order_id": "576591797554025381",
    "reporting_date": "2024-02-28",
    "customer_id": "ptwn830",
    "source_type": "Sales",
    "city": "Pleasanton",
    "state": "Texas",
    "state_code": "TX",
    "zipcode": "78064",
    "units_sold": 1,
    "order_sales": 30.38,
    "gross_sales": 34.99,
    "refund_amount": null,
    "is_canceled": false,
    "is_refunded": false,
    "is_returned": false,
    "latitude": 28.9924,
    "longitude": -98.4831
  },
  {
    "order_id": "576591800018374680",
    "reporting_date": "2024-02-28",
    "customer_id": "rez559bullies",
    "source_type": "Sales",
    "city": "Fresno",
    "state": "California",
    "state_code": "CA",
    "zipcode": "93706",
    "units_sold": 1,
    "order_sales": 34.99,
    "gross_sales": 49.99,
    "refund_amount": null,
    "is_canceled": false,
    "is_refunded": false,
    "is_returned": false,
    "latitude": 36.6486,
    "longitude": -119.9987
  },
  {
    "order_id": "576591802170118618",
    "reporting_date": "2024-02-28",
    "customer_id": "lovelyishlovinglife",
    "source_type": "Sales",
    "city": "Chicago",
    "state": "Illinois",
    "state_code": "IL",
    "zipcode": "60653",
    "units_sold": 1,
    "order_sales": 49.99,
    "gross_sales": 49.99,
    "refund_amount": null,
    "is_canceled": false,
    "is_refunded": false,
    "is_returned": false,
    "latitude": 41.8196,
    "longitude": -87.6126
  },
  {
    "order_id": "576591802750177441",
    "reporting_date": "2024-02-28",
    "customer_id": "taz2767",
    "source_type": "Sales",
    "city": "Miami",
    "state": "Florida",
    "state_code": "FL",
    "zipcode": "33186",
    "units_sold": 1,
    "order_sales": 34.99,
    "gross_sales": 34.99,
    "refund_amount": null,
    "is_canceled": false,
    "is_refunded": false,
    "is_returned": false,
    "latitude": 25.6694,
    "longitude": -80.4085
  },
  {
    "order_id": "576591803057672527",
    "reporting_date": "2024-02-28",
    "customer_id": "ruthied58",
    "source_type": "Sales",
    "city": "Somerton",
    "state": "Arizona",
    "state_code": "AZ",
    "zipcode": "85350",
    "units_sold": 1,
    "order_sales": 34.99,
    "gross_sales": 34.99,
    "refund_amount": null,
    "is_canceled": false,
    "is_refunded": false,
    "is_returned": false,
    "latitude": 32.5634,
    "longitude": -114.7127
  },
  {
    "order_id": "576591805351236466",
    "reporting_date": "2024-02-28",
    "customer_id": "angiegerstman",
    "source_type": "Sales",
    "city": "Vinemont",
    "state": "Alabama",
    "state_code": "AL",
    "zipcode": "35179",
    "units_sold": 1,
    "order_sales": 34.99,
    "gross_sales": 34.99,
    "refund_amount": null,
    "is_canceled": false,
    "is_refunded": false,
    "is_returned": false,
    "latitude": 34.2621,
    "longitude": -86.9125
  },
  {
    "order_id": "576591805995848432",
    "reporting_date": "2024-02-28",
    "customer_id": "amandarose9873",
    "source_type": "Sales",
    "city": "Redford",
    "state": "Michigan",
    "state_code": "MI",
    "zipcode": "48239",
    "units_sold": 1,
    "order_sales": 34.99,
    "gross_sales": 34.99,
    "refund_amount": null,
    "is_canceled": false,
    "is_refunded": false,
    "is_returned": false,
    "latitude": 42.3756,
    "longitude": -83.2889
  },
  {
    "order_id": "576591806060204620",
    "reporting_date": "2024-02-28",
    "customer_id": "whatthefuckisthismovie",
    "source_type": "Sales",
    "city": "Wilson",
    "state": "North Carolina",
    "state_code": "NC",
    "zipcode": "27893",
    "units_sold": 1,
    "order_sales": 24.49,
    "gross_sales": 34.99,
    "refund_amount": null,
    "is_canceled": false,
    "is_refunded": false,
    "is_returned": false,
    "latitude": 35.727,
    "longitude": -77.9227
  },
  {
    "order_id": "576591806283485556",
    "reporting_date": "2024-02-28",
    "customer_id": "beautyamongus",
    "source_type": "Sales",
    "city": "Tontitown",
    "state": "Arkansas",
    "state_code": "AR",
    "zipcode": "72762",
    "units_sold": 1,
    "order_sales": 24.49,
    "gross_sales": 34.99,
    "refund_amount": null,
    "is_canceled": false,
    "is_refunded": false,
    "is_returned": false,
    "latitude": 36.1835,
    "longitude": -94.1762
  },
  {
    "order_id": "576591807467917601",
    "reporting_date": "2024-02-28",
    "customer_id": "vanessaojz",
    "source_type": "Sales",
    "city": "El Paso",
    "state": "Texas",
    "state_code": "TX",
    "zipcode": "79911",
    "units_sold": 1,
    "order_sales": 24.49,
    "gross_sales": 34.99,
    "refund_amount": null,
    "is_canceled": false,
    "is_refunded": false,
    "is_returned": false,
    "latitude": 31.8925,
    "longitude": -106.5426
  },
  {
    "order_id": "576591809891504320",
    "reporting_date": "2024-02-28",
    "customer_id": "signyopity",
    "source_type": "Sales",
    "city": "Bridgeport",
    "state": "Connecticut",
    "state_code": "CT",
    "zipcode": "06605",
    "units_sold": 1,
    "order_sales": 13.99,
    "gross_sales": 19.99,
    "refund_amount": null,
    "is_canceled": false,
    "is_refunded": false,
    "is_returned": false,
    "latitude": 41.1668,
    "longitude": -73.2163
  },
  {
    "order_id": "576591810177635168",
    "reporting_date": "2024-02-28",
    "customer_id": "luluzzzz01",
    "source_type": "Sales",
    "city": "Moncks Corner",
    "state": "South Carolina",
    "state_code": "SC",
    "zipcode": "29461",
    "units_sold": 1,
    "order_sales": 34.99,
    "gross_sales": 49.99,
    "refund_amount": null,
    "is_canceled": false,
    "is_refunded": false,
    "is_returned": false,
    "latitude": 33.1971,
    "longitude": -80.0233
  },
  {
    "order_id": "576591850589885286",
    "reporting_date": "2024-02-28",
    "customer_id": "ericjaquez5",
    "source_type": "Sales",
    "city": "Tolleson",
    "state": "Arizona",
    "state_code": "AZ",
    "zipcode": "85353",
    "units_sold": 1,
    "order_sales": 24.49,
    "gross_sales": 34.99,
    "refund_amount": null,
    "is_canceled": false,
    "is_refunded": false,
    "is_returned": false,
    "latitude": 33.4347,
    "longitude": -112.2774
  },
  {
    "order_id": "576591836560462389",
    "reporting_date": "2024-02-28",
    "customer_id": "paiute_97761",
    "source_type": "Sales",
    "city": "********",
    "state": "Oregon",
    "state_code": "OR",
    "zipcode": "",
    "units_sold": 1,
    "order_sales": 34.99,
    "gross_sales": 34.99,
    "refund_amount": 34.99,
    "is_canceled": true,
    "is_refunded": true,
    "is_returned": true,
    "latitude": null,
    "longitude": null
  },
  {
    "order_id": "576591854117032843",
    "reporting_date": "2024-02-28",
    "customer_id": "66impala_",
    "source_type": "Sales",
    "city": "San Jose",
    "state": "California",
    "state_code": "CA",
    "zipcode": "95111",
    "units_sold": 1,
    "order_sales": 34.99,
    "gross_sales": 34.99,
    "refund_amount": null,
    "is_canceled": false,
    "is_refunded": false,
    "is_returned": false,
    "latitude": 37.2827,
    "longitude": -121.8265
  },
  {
    "order_id": "576591855288816386",
    "reporting_date": "2024-02-28",
    "customer_id": "56rock56",
    "source_type": "Sales",
    "city": "Medford",
    "state": "Oregon",
    "state_code": "OR",
    "zipcode": "97504",
    "units_sold": 1,
    "order_sales": 19.99,
    "gross_sales": 19.99,
    "refund_amount": null,
    "is_canceled": false,
    "is_refunded": false,
    "is_returned": false,
    "latitude": 42.3363,
    "longitude": -122.8398
  },
  {
    "order_id": "576592020934660856",
    "reporting_date": "2024-02-28",
    "customer_id": "ireneperez7217",
    "source_type": "Sales",
    "city": "Pomona",
    "state": "California",
    "state_code": "CA",
    "zipcode": "91766",
    "units_sold": 1,
    "order_sales": 24.49,
    "gross_sales": 34.99,
    "refund_amount": null,
    "is_canceled": false,
    "is_refunded": false,
    "is_returned": false,
    "latitude": 34.0418,
    "longitude": -117.7569
  },
  {
    "order_id": "576592012779753682",
    "reporting_date": "2024-02-28",
    "customer_id": "user2515382414453",
    "source_type": "Sales",
    "city": "Lake Havasu City",
    "state": "Arizona",
    "state_code": "AZ",
    "zipcode": "86403",
    "units_sold": 1,
    "order_sales": 34.99,
    "gross_sales": 34.99,
    "refund_amount": null,
    "is_canceled": false,
    "is_refunded": false,
    "is_returned": false,
    "latitude": 34.4814,
    "longitude": -114.3483
  },
  {
    "order_id": "576592008164905135",
    "reporting_date": "2024-02-28",
    "customer_id": "jocyarely_96",
    "source_type": "Sales",
    "city": "Las Vegas",
    "state": "Nevada",
    "state_code": "NV",
    "zipcode": "89106",
    "units_sold": 1,
    "order_sales": 13.99,
    "gross_sales": 19.99,
    "refund_amount": null,
    "is_canceled": false,
    "is_refunded": false,
    "is_returned": false,
    "latitude": 36.1847,
    "longitude": -115.1617
  },
  {
    "order_id": "576592000309105508",
    "reporting_date": "2024-02-28",
    "customer_id": "enriqueaguilar510",
    "source_type": "Sales",
    "city": "Oakland",
    "state": "California",
    "state_code": "CA",
    "zipcode": "94621",
    "units_sold": 1,
    "order_sales": 34.99,
    "gross_sales": 34.99,
    "refund_amount": null,
    "is_canceled": false,
    "is_refunded": false,
    "is_returned": false,
    "latitude": 37.7589,
    "longitude": -122.1853
  },
  {
    "order_id": "576591989457589161",
    "reporting_date": "2024-02-28",
    "customer_id": "geema888",
    "source_type": "Sales",
    "city": "Everett",
    "state": "Washington",
    "state_code": "WA",
    "zipcode": "98201",
    "units_sold": 1,
    "order_sales": 19.99,
    "gross_sales": 19.99,
    "refund_amount": null,
    "is_canceled": false,
    "is_refunded": false,
    "is_returned": false,
    "latitude": 47.9884,
    "longitude": -122.2006
  },
  {
    "order_id": "576591987830854105",
    "reporting_date": "2024-02-28",
    "customer_id": "livelover25",
    "source_type": "Sales",
    "city": "Las Vegas",
    "state": "Nevada",
    "state_code": "NV",
    "zipcode": "89110",
    "units_sold": 1,
    "order_sales": 13.99,
    "gross_sales": 19.99,
    "refund_amount": null,
    "is_canceled": false,
    "is_refunded": false,
    "is_returned": false,
    "latitude": 36.173,
    "longitude": -115.0669
  },
  {
    "order_id": "576591987542102611",
    "reporting_date": "2024-02-28",
    "customer_id": "user3456952081823",
    "source_type": "Sales",
    "city": "Weston",
    "state": "Florida",
    "state_code": "FL",
    "zipcode": "33327",
    "units_sold": 1,
    "order_sales": 13.99,
    "gross_sales": 19.99,
    "refund_amount": null,
    "is_canceled": false,
    "is_refunded": false,
    "is_returned": false,
    "latitude": 26.1168,
    "longitude": -80.4156
  },
  {
    "order_id": "576591984098317311",
    "reporting_date": "2024-02-28",
    "customer_id": "velvitmonroe",
    "source_type": "Sales",
    "city": "Detroit",
    "state": "Michigan",
    "state_code": "MI",
    "zipcode": "48227",
    "units_sold": 1,
    "order_sales": 19.99,
    "gross_sales": 19.99,
    "refund_amount": null,
    "is_canceled": false,
    "is_refunded": false,
    "is_returned": false,
    "latitude": 42.3883,
    "longitude": -83.1937
  },
  {
    "order_id": "576592070115889226",
    "reporting_date": "2024-02-28",
    "customer_id": "gman310",
    "source_type": "Sales",
    "city": "Kyle",
    "state": "Texas",
    "state_code": "TX",
    "zipcode": "78640",
    "units_sold": 1,
    "order_sales": 25.99,
    "gross_sales": 34.99,
    "refund_amount": null,
    "is_canceled": false,
    "is_refunded": false,
    "is_returned": false,
    "latitude": 29.9966,
    "longitude": -97.8335
  },
  {
    "order_id": "576591981269717239",
    "reporting_date": "2024-02-28",
    "customer_id": "albertocortez69",
    "source_type": "Sales",
    "city": "Pico Rivera",
    "state": "California",
    "state_code": "CA",
    "zipcode": "90660",
    "units_sold": 1,
    "order_sales": 19.99,
    "gross_sales": 19.99,
    "refund_amount": null,
    "is_canceled": false,
    "is_refunded": false,
    "is_returned": false,
    "latitude": 33.9886,
    "longitude": -118.0883
  },
  {
    "order_id": "576591980615865111",
    "reporting_date": "2024-02-28",
    "customer_id": "user7759244272594",
    "source_type": "Sales",
    "city": "San Jose",
    "state": "California",
    "state_code": "CA",
    "zipcode": "95132",
    "units_sold": 1,
    "order_sales": 34.99,
    "gross_sales": 49.99,
    "refund_amount": null,
    "is_canceled": false,
    "is_refunded": false,
    "is_returned": false,
    "latitude": 37.4031,
    "longitude": -121.8585
  },
  {
    "order_id": "576591965560738276",
    "reporting_date": "2024-02-28",
    "customer_id": "nitaquinto",
    "source_type": "Sales",
    "city": "Ewa Beach",
    "state": "Hawaii",
    "state_code": "HI",
    "zipcode": "96706",
    "units_sold": 1,
    "order_sales": 24.49,
    "gross_sales": 34.99,
    "refund_amount": null,
    "is_canceled": false,
    "is_refunded": false,
    "is_returned": false,
    "latitude": 21.3274,
    "longitude": -158.0103
  },
  {
    "order_id": "576591953150185658",
    "reporting_date": "2024-02-28",
    "customer_id": "mermaidbella1",
    "source_type": "Sales",
    "city": "Hayward",
    "state": "California",
    "state_code": "CA",
    "zipcode": "94544",
    "units_sold": 1,
    "order_sales": 19.99,
    "gross_sales": 19.99,
    "refund_amount": null,
    "is_canceled": false,
    "is_refunded": false,
    "is_returned": false,
    "latitude": 37.6374,
    "longitude": -122.067
  },
  {
    "order_id": "576591952406548510",
    "reporting_date": "2024-02-28",
    "customer_id": "rob_ru",
    "source_type": "Sales",
    "city": "Porterville",
    "state": "California",
    "state_code": "CA",
    "zipcode": "93257",
    "units_sold": 1,
    "order_sales": 19.99,
    "gross_sales": 19.99,
    "refund_amount": null,
    "is_canceled": false,
    "is_refunded": false,
    "is_returned": false,
    "latitude": 36.0686,
    "longitude": -119.0315
  },
  {
    "order_id": "576591951356924273",
    "reporting_date": "2024-02-28",
    "customer_id": "jeffmaestas56",
    "source_type": "Sales",
    "city": "Barstow",
    "state": "California",
    "state_code": "CA",
    "zipcode": "92311",
    "units_sold": 1,
    "order_sales": 13.99,
    "gross_sales": 19.99,
    "refund_amount": null,
    "is_canceled": false,
    "is_refunded": false,
    "is_returned": false,
    "latitude": 34.8914,
    "longitude": -117.0387
  },
  {
    "order_id": "576591945537589959",
    "reporting_date": "2024-02-28",
    "customer_id": "agpt56",
    "source_type": "Sales",
    "city": "Tolleson",
    "state": "Arizona",
    "state_code": "AZ",
    "zipcode": "85353",
    "units_sold": 1,
    "order_sales": 34.99,
    "gross_sales": 34.99,
    "refund_amount": null,
    "is_canceled": false,
    "is_refunded": false,
    "is_returned": false,
    "latitude": 33.4347,
    "longitude": -112.2774
  },
  {
    "order_id": "576592035412218631",
    "reporting_date": "2024-02-28",
    "customer_id": "stickerhoggz",
    "source_type": "Sales",
    "city": "Humble",
    "state": "Texas",
    "state_code": "TX",
    "zipcode": "77346",
    "units_sold": 1,
    "order_sales": 19.99,
    "gross_sales": 19.99,
    "refund_amount": null,
    "is_canceled": false,
    "is_refunded": false,
    "is_returned": false,
    "latitude": 30.0042,
    "longitude": -95.1728
  },
  {
    "order_id": "576592089331372568",
    "reporting_date": "2024-02-28",
    "customer_id": "joegutierrez199",
    "source_type": "Sales",
    "city": "Colton",
    "state": "California",
    "state_code": "CA",
    "zipcode": "92324",
    "units_sold": 1,
    "order_sales": 24.49,
    "gross_sales": 34.99,
    "refund_amount": null,
    "is_canceled": false,
    "is_refunded": false,
    "is_returned": false,
    "latitude": 34.0315,
    "longitude": -117.2874
  },
  {
    "order_id": "576591943075861396",
    "reporting_date": "2024-02-28",
    "customer_id": "ninovitagliano",
    "source_type": "Sales",
    "city": "Roselle",
    "state": "Illinois",
    "state_code": "IL",
    "zipcode": "60172",
    "units_sold": 1,
    "order_sales": 24.49,
    "gross_sales": 34.99,
    "refund_amount": null,
    "is_canceled": false,
    "is_refunded": false,
    "is_returned": false,
    "latitude": 41.9798,
    "longitude": -88.0857
  },
  {
    "order_id": "576592153379902405",
    "reporting_date": "2024-02-28",
    "customer_id": "saynomashermano",
    "source_type": "Sales",
    "city": "Monrovia",
    "state": "California",
    "state_code": "CA",
    "zipcode": "91016",
    "units_sold": 1,
    "order_sales": 49.99,
    "gross_sales": 49.99,
    "refund_amount": null,
    "is_canceled": false,
    "is_refunded": false,
    "is_returned": false,
    "latitude": 34.144,
    "longitude": -118.0014
  },
  {
    "order_id": "576592167103271017",
    "reporting_date": "2024-02-28",
    "customer_id": "jenmurdock",
    "source_type": "Sales",
    "city": "Dallas",
    "state": "Oregon",
    "state_code": "OR",
    "zipcode": "97338",
    "units_sold": 1,
    "order_sales": 24.49,
    "gross_sales": 34.99,
    "refund_amount": null,
    "is_canceled": false,
    "is_refunded": false,
    "is_returned": false,
    "latitude": 44.9225,
    "longitude": -123.32
  },
  {
    "order_id": "576592163878572576",
    "reporting_date": "2024-02-28",
    "customer_id": "kishanunez1",
    "source_type": "Sales",
    "city": "Port Neches",
    "state": "Texas",
    "state_code": "TX",
    "zipcode": "77651",
    "units_sold": 1,
    "order_sales": 34.99,
    "gross_sales": 34.99,
    "refund_amount": null,
    "is_canceled": false,
    "is_refunded": false,
    "is_returned": false,
    "latitude": 29.977,
    "longitude": -93.9626
  },
  {
    "order_id": "576592162548256786",
    "reporting_date": "2024-02-28",
    "customer_id": "isaakhdz77",
    "source_type": "Sales",
    "city": "Frederick",
    "state": "Maryland",
    "state_code": "MD",
    "zipcode": "21703",
    "units_sold": 1,
    "order_sales": 13.99,
    "gross_sales": 19.99,
    "refund_amount": null,
    "is_canceled": false,
    "is_refunded": false,
    "is_returned": false,
    "latitude": 39.3647,
    "longitude": -77.4636
  },
  {
    "order_id": "576592160131092922",
    "reporting_date": "2024-02-28",
    "customer_id": "cpugurujd",
    "source_type": "Sales",
    "city": "Henderson",
    "state": "Nevada",
    "state_code": "NV",
    "zipcode": "89044",
    "units_sold": 1,
    "order_sales": 34.99,
    "gross_sales": 34.99,
    "refund_amount": null,
    "is_canceled": false,
    "is_refunded": false,
    "is_returned": false,
    "latitude": 35.9025,
    "longitude": -115.1789
  },
  {
    "order_id": "576592159460856702",
    "reporting_date": "2024-02-28",
    "customer_id": "mikedriggersjr",
    "source_type": "Sales",
    "city": "Martinez",
    "state": "California",
    "state_code": "CA",
    "zipcode": "94553",
    "units_sold": 1,
    "order_sales": 49.99,
    "gross_sales": 49.99,
    "refund_amount": null,
    "is_canceled": false,
    "is_refunded": false,
    "is_returned": false,
    "latitude": 37.9864,
    "longitude": -122.135
  },
  {
    "order_id": "576592156135821686",
    "reporting_date": "2024-02-28",
    "customer_id": "nanamari744",
    "source_type": "Sales",
    "city": "Surprise",
    "state": "Arizona",
    "state_code": "AZ",
    "zipcode": "85379",
    "units_sold": 1,
    "order_sales": 34.99,
    "gross_sales": 34.99,
    "refund_amount": null,
    "is_canceled": false,
    "is_refunded": false,
    "is_returned": false,
    "latitude": 33.6021,
    "longitude": -112.3736
  },
  {
    "order_id": "576592153421910597",
    "reporting_date": "2024-02-28",
    "customer_id": "lisambayer",
    "source_type": "Sales",
    "city": "Oro Grande",
    "state": "California",
    "state_code": "CA",
    "zipcode": "92368",
    "units_sold": 1,
    "order_sales": 14.99,
    "gross_sales": 19.99,
    "refund_amount": null,
    "is_canceled": false,
    "is_refunded": false,
    "is_returned": false,
    "latitude": 34.6178,
    "longitude": -117.3327
  },
  {
    "order_id": "576592152320774375",
    "reporting_date": "2024-02-28",
    "customer_id": "rudy_2170",
    "source_type": "Sales",
    "city": "Kenosha",
    "state": "Wisconsin",
    "state_code": "WI",
    "zipcode": "53144",
    "units_sold": 1,
    "order_sales": 34.99,
    "gross_sales": 34.99,
    "refund_amount": null,
    "is_canceled": false,
    "is_refunded": false,
    "is_returned": false,
    "latitude": 42.6058,
    "longitude": -87.8762
  },
  {
    "order_id": "576592090299535856",
    "reporting_date": "2024-02-28",
    "customer_id": "realuve",
    "source_type": "Sales",
    "city": "Hollister",
    "state": "California",
    "state_code": "CA",
    "zipcode": "95023",
    "units_sold": 1,
    "order_sales": 19.99,
    "gross_sales": 19.99,
    "refund_amount": null,
    "is_canceled": false,
    "is_refunded": false,
    "is_returned": false,
    "latitude": 36.8337,
    "longitude": -121.3439
  },
  {
    "order_id": "576592145325069278",
    "reporting_date": "2024-02-28",
    "customer_id": "tracywarner06",
    "source_type": "Sales",
    "city": "Santa Rosa",
    "state": "California",
    "state_code": "CA",
    "zipcode": "95401",
    "units_sold": 1,
    "order_sales": 19.99,
    "gross_sales": 19.99,
    "refund_amount": null,
    "is_canceled": false,
    "is_refunded": false,
    "is_returned": false,
    "latitude": 38.4432,
    "longitude": -122.7547
  },
  {
    "order_id": "576592145116992109",
    "reporting_date": "2024-02-28",
    "customer_id": "gary1johnwayne1moore",
    "source_type": "Sales",
    "city": "Chaffee",
    "state": "Missouri",
    "state_code": "MO",
    "zipcode": "63740",
    "units_sold": 1,
    "order_sales": 24.49,
    "gross_sales": 34.99,
    "refund_amount": null,
    "is_canceled": false,
    "is_refunded": false,
    "is_returned": false,
    "latitude": 37.1726,
    "longitude": -89.6457
  },
  {
    "order_id": "576592144853536915",
    "reporting_date": "2024-02-28",
    "customer_id": "misssaye24",
    "source_type": "Sales",
    "city": "Whittier",
    "state": "California",
    "state_code": "CA",
    "zipcode": "90604",
    "units_sold": 1,
    "order_sales": 24.49,
    "gross_sales": 34.99,
    "refund_amount": null,
    "is_canceled": false,
    "is_refunded": false,
    "is_returned": false,
    "latitude": 33.9299,
    "longitude": -118.0121
  },
  {
    "order_id": "576592140422779887",
    "reporting_date": "2024-02-28",
    "customer_id": "neverfold408",
    "source_type": "Sales",
    "city": "San Jose",
    "state": "California",
    "state_code": "CA",
    "zipcode": "95131",
    "units_sold": 1,
    "order_sales": 34.99,
    "gross_sales": 34.99,
    "refund_amount": null,
    "is_canceled": false,
    "is_refunded": false,
    "is_returned": false,
    "latitude": 37.3864,
    "longitude": -121.88
  },