[
  {
    "order_id": "577026481411625669",
    "reporting_date": "2025-07-03",
    "customer_id": "sammieo2022",
    "source_type": "Sales",
    "city": "La Porte",
    "state": "Texas",
    "state_code": "TX",
    "zipcode": "77571",
    "units_sold": 1,
    "order_sales": 12.92,
    "gross_sales": 19.99,
    "refund_amount": null,
    "is_canceled": false,
    "is_refunded": false,
    "is_returned": false,
    "latitude": 29.6884,
    "longitude": -95.0513
  },
  {
    "order_id": "577026480801747535",
    "reporting_date": "2025-07-03",
    "customer_id": "strongaverage",
    "source_type": "Sales",
    "city": "Sullivan",
    "state": "Missouri",
    "state_code": "MO",
    "zipcode": "63080",
    "units_sold": 1,
    "order_sales": 11.62,
    "gross_sales": 19.99,
    "refund_amount": 12.31,
    "is_canceled": false,
    "is_refunded": true,
    "is_returned": true,
    "latitude": 38.2307,
    "longitude": -91.1567
  },
  {
    "order_id": "577026479004356810",
    "reporting_date": "2025-07-03",
    "customer_id": "auraoforo",
    "source_type": "Sales",
    "city": "Orlando",
    "state": "Florida",
    "state_code": "FL",
    "zipcode": "32832",
    "units_sold": 1,
    "order_sales": 16.14,
    "gross_sales": 19.99,
    "refund_amount": null,
    "is_canceled": false,
    "is_refunded": false,
    "is_returned": false,
    "latitude": 28.3774,
    "longitude": -81.1888
  },
  {
    "order_id": "577026477825429985",
    "reporting_date": "2025-07-03",
    "customer_id": "meganblank",
    "source_type": "Sales",
    "city": "Redlands",
    "state": "California",
    "state_code": "CA",
    "zipcode": "92373",
    "units_sold": 1,
    "order_sales": 14.53,
    "gross_sales": 19.99,
    "refund_amount": null,
    "is_canceled": false,
    "is_refunded": false,
    "is_returned": false,
    "latitude": 34.0397,
    "longitude": -117.1804
  },
  {
    "order_id": "577026477360255470",
    "reporting_date": "2025-07-03",
    "customer_id": "ingrisamaya2",
    "source_type": "Sales",
    "city": "Norfolk",
    "state": "Virginia",
    "state_code": "VA",
    "zipcode": "23513",
    "units_sold": 1,
    "order_sales": 13.18,
    "gross_sales": 19.99,
    "refund_amount": null,
    "is_canceled": false,
    "is_refunded": false,
    "is_returned": false,
    "latitude": 36.8914,
    "longitude": -76.2396
  },
  {
    "order_id": "577026476663476728",
    "reporting_date": "2025-07-03",
    "customer_id": "theshwanz",
    "source_type": "Sales",
    "city": "Brighton",
    "state": "Colorado",
    "state_code": "CO",
    "zipcode": "80601",
    "units_sold": 1,
    "order_sales": 26.59,
    "gross_sales": 34.99,
    "refund_amount": null,
    "is_canceled": false,
    "is_refunded": false,
    "is_returned": false,
    "latitude": 39.943,
    "longitude": -104.7866
  },
  {
    "order_id": "577026476663411192",
    "reporting_date": "2025-07-03",
    "customer_id": "theshwanz",
    "source_type": "Sales",
    "city": "Brighton",
    "state": "Colorado",
    "state_code": "CO",
    "zipcode": "80601",
    "units_sold": 1,
    "order_sales": 29.63,
    "gross_sales": 49.99,
    "refund_amount": null,
    "is_canceled": false,
    "is_refunded": false,
    "is_returned": false,
    "latitude": 39.943,
    "longitude": -104.7866
  },
  {
    "order_id": "577026475366388338",
    "reporting_date": "2025-07-03",
    "customer_id": "adrianvancini",
    "source_type": "Sales",
    "city": "Camarillo",
    "state": "California",
    "state_code": "CA",
    "zipcode": "93010",
    "units_sold": 1,
    "order_sales": 14.53,
    "gross_sales": 19.99,
    "refund_amount": null,
    "is_canceled": false,
    "is_refunded": false,
    "is_returned": false,
    "latitude": 34.2313,
    "longitude": -119.0464
  },
  {
    "order_id": "577026474372665941",
    "reporting_date": "2025-07-03",
    "customer_id": "elizabethperezbeauty",
    "source_type": "Sales",
    "city": "Acworth",
    "state": "Georgia",
    "state_code": "GA",
    "zipcode": "30101",
    "units_sold": 2,
    "order_sales": 32.28,
    "gross_sales": 39.98,
    "refund_amount": null,
    "is_canceled": false,
    "is_refunded": false,
    "is_returned": false,
    "latitude": 34.0756,
    "longitude": -84.6477
  },
  {
    "order_id": "577026471632802637",
    "reporting_date": "2025-07-03",
    "customer_id": "user4590027887201",
    "source_type": "Sales",
    "city": "Goshen",
    "state": "Indiana",
    "state_code": "IN",
    "zipcode": "46528",
    "units_sold": 2,
    "order_sales": 32.28,
    "gross_sales": 39.98,
    "refund_amount": null,
    "is_canceled": false,
    "is_refunded": false,
    "is_returned": false,
    "latitude": 41.6248,
    "longitude": -85.8391
  },
  {
    "order_id": "577026469486104660",
    "reporting_date": "2025-07-03",
    "customer_id": "chasityfisher10",
    "source_type": "Sales",
    "city": "Leesburg",
    "state": "Florida",
    "state_code": "FL",
    "zipcode": "34748",
    "units_sold": 1,
    "order_sales": 14.53,
    "gross_sales": 19.99,
    "refund_amount": null,
    "is_canceled": false,
    "is_refunded": false,
    "is_returned": false,
    "latitude": 28.808,
    "longitude": -81.8858
  },
  {
    "order_id": "577026462446162008",
    "reporting_date": "2025-07-03",
    "customer_id": "littlebitty1999",
    "source_type": "Sales",
    "city": "Chapin",
    "state": "South Carolina",
    "state_code": "SC",
    "zipcode": "29036",
    "units_sold": 1,
    "order_sales": 14.53,
    "gross_sales": 19.99,
    "refund_amount": null,
    "is_canceled": false,
    "is_refunded": false,
    "is_returned": false,
    "latitude": 34.1312,
    "longitude": -81.3318
  },
  {
    "order_id": "577026461498839642",
    "reporting_date": "2025-07-03",
    "customer_id": "julioalonzo98",
    "source_type": "Sales",
    "city": "Waltham",
    "state": "Massachusetts",
    "state_code": "MA",
    "zipcode": "02453",
    "units_sold": 1,
    "order_sales": 14.53,
    "gross_sales": 19.99,
    "refund_amount": null,
    "is_canceled": false,
    "is_refunded": false,
    "is_returned": false,
    "latitude": 42.3654,
    "longitude": -71.2317
  },
  {
    "order_id": "577026461092647890",
    "reporting_date": "2025-07-03",
    "customer_id": "tmj425",
    "source_type": "Sales",
    "city": "Pantego",
    "state": "Texas",
    "state_code": "TX",
    "zipcode": "76013",
    "units_sold": 1,
    "order_sales": 12.91,
    "gross_sales": 19.99,
    "refund_amount": null,
    "is_canceled": false,
    "is_refunded": false,
    "is_returned": false,
    "latitude": 32.7199,
    "longitude": -97.1442
  },
  {
    "order_id": "577026560465277743",
    "reporting_date": "2025-07-03",
    "customer_id": "deelhb",
    "source_type": "Sales",
    "city": "Clarksville",
    "state": "Tennessee",
    "state_code": "TN",
    "zipcode": "37043",
    "units_sold": 1,
    "order_sales": 21.48,
    "gross_sales": 34.99,
    "refund_amount": null,
    "is_canceled": false,
    "is_refunded": false,
    "is_returned": false,
    "latitude": 36.5107,
    "longitude": -87.2757
  },
  {
    "order_id": "577026562296419206",
    "reporting_date": "2025-07-03",
    "customer_id": "stepeneeloera5722",
    "source_type": "Sales",
    "city": "Grand Prairie",
    "state": "Texas",
    "state_code": "TX",
    "zipcode": "75051",
    "units_sold": 1,
    "order_sales": 16.27,
    "gross_sales": 34.99,
    "refund_amount": null,
    "is_canceled": false,
    "is_refunded": false,
    "is_returned": false,
    "latitude": 32.7115,
    "longitude": -97.0069
  },
  {
    "order_id": "577026562552730225",
    "reporting_date": "2025-07-03",
    "customer_id": "grandmommy794",
    "source_type": "Sales",
    "city": "Mc Kees Rocks",
    "state": "Pennsylvania",
    "state_code": "PA",
    "zipcode": "15136",
    "units_sold": 1,
    "order_sales": 12.92,
    "gross_sales": 19.99,
    "refund_amount": null,
    "is_canceled": false,
    "is_refunded": false,
    "is_returned": false,
    "latitude": 40.4717,
    "longitude": -80.0876
  },
  {
    "order_id": "577026636252942690",
    "reporting_date": "2025-07-03",
    "customer_id": "bishop_mom",
    "source_type": "Sales",
    "city": "Berryville",
    "state": "Arkansas",
    "state_code": "AR",
    "zipcode": "72616",
    "units_sold": 1,
    "order_sales": 16.14,
    "gross_sales": 19.99,
    "refund_amount": null,
    "is_canceled": false,
    "is_refunded": false,
    "is_returned": false,
    "latitude": 36.3519,
    "longitude": -93.5587
  },
  {
    "order_id": "577026641383428137",
    "reporting_date": "2025-07-03",
    "customer_id": "graceee_kelly_",
    "source_type": "Sales",
    "city": "Highland",
    "state": "California",
    "state_code": "CA",
    "zipcode": "92346",
    "units_sold": 2,
    "order_sales": 22.79,
    "gross_sales": 39.98,
    "refund_amount": null,
    "is_canceled": false,
    "is_refunded": false,
    "is_returned": false,
    "latitude": 34.1283,
    "longitude": -117.2087
  },
  {
    "order_id": "577026640649556354",
    "reporting_date": "2025-07-03",
    "customer_id": "sherriowenseades",
    "source_type": "Sales",
    "city": "Sharpsville",
    "state": "Indiana",
    "state_code": "IN",
    "zipcode": "46068",
    "units_sold": 1,
    "order_sales": 16.14,
    "gross_sales": 19.99,
    "refund_amount": null,
    "is_canceled": false,
    "is_refunded": false,
    "is_returned": false,
    "latitude": 40.3732,
    "longitude": -86.1086
  },
  {
    "order_id": "577026639917387883",
    "reporting_date": "2025-07-03",
    "customer_id": "babyfavorite68",
    "source_type": "Sales",
    "city": "Ridgecrest",
    "state": "California",
    "state_code": "CA",
    "zipcode": "93555",
    "units_sold": 1,
    "order_sales": 16.14,
    "gross_sales": 19.99,
    "refund_amount": null,
    "is_canceled": false,
    "is_refunded": false,
    "is_returned": false,
    "latitude": 35.6225,
    "longitude": -117.6709
  },
  {
    "order_id": "577026639720387097",
    "reporting_date": "2025-07-03",
    "customer_id": "C********** S******",
    "source_type": "Sales",
    "city": "Smyrna",
    "state": "Delaware",
    "state_code": "DE",
    "zipcode": "19977",
    "units_sold": 2,
    "order_sales": 25.83,
    "gross_sales": 39.98,
    "refund_amount": null,
    "is_canceled": false,
    "is_refunded": false,
    "is_returned": false,
    "latitude": 39.2934,
    "longitude": -75.6008
  },
  {
    "order_id": "577026639156384086",
    "reporting_date": "2025-07-03",
    "customer_id": "ttown77",
    "source_type": "Sales",
    "city": "Minot",
    "state": "North Dakota",
    "state_code": "ND",
    "zipcode": "58703",
    "units_sold": 1,
    "order_sales": 14.24,
    "gross_sales": 19.99,
    "refund_amount": null,
    "is_canceled": false,
    "is_refunded": false,
    "is_returned": false,
    "latitude": 48.3306,
    "longitude": -101.3156
  },
  {
    "order_id": "577026638704579002",
    "reporting_date": "2025-07-03",
    "customer_id": "manda_278",
    "source_type": "Sales",
    "city": "Taylor",
    "state": "Michigan",
    "state_code": "MI",
    "zipcode": "48180",
    "units_sold": 1,
    "order_sales": 13.62,
    "gross_sales": 19.99,
    "refund_amount": null,
    "is_canceled": false,
    "is_refunded": false,
    "is_returned": false,
    "latitude": 42.2317,
    "longitude": -83.2673
  },
  {
    "order_id": "577026638463406085",
    "reporting_date": "2025-07-03",
    "customer_id": "user7467056015549",
    "source_type": "Sales",
    "city": "Buckeye",
    "state": "Arizona",
    "state_code": "AZ",
    "zipcode": "85326",
    "units_sold": 2,
    "order_sales": 32.28,
    "gross_sales": 39.98,
    "refund_amount": null,
    "is_canceled": false,
    "is_refunded": false,
    "is_returned": false,
    "latitude": 33.3703,
    "longitude": -112.5838
  },
  {
    "order_id": "577026637904449633",
    "reporting_date": "2025-07-03",
    "customer_id": ".vibinwithkiki",
    "source_type": "Sales",
    "city": "Fort Dodge",
    "state": "Iowa",
    "state_code": "IA",
    "zipcode": "50501",
    "units_sold": 1,
    "order_sales": 11.62,
    "gross_sales": 19.99,
    "refund_amount": null,
    "is_canceled": false,
    "is_refunded": false,
    "is_returned": false,
    "latitude": 42.5088,
    "longitude": -94.1807
  },
  {
    "order_id": "577026637693882961",
    "reporting_date": "2025-07-03",
    "customer_id": "enriquejackson5",
    "source_type": "Sales",
    "city": "Biggs",
    "state": "California",
    "state_code": "CA",
    "zipcode": "95917",
    "units_sold": 1,
    "order_sales": 14.24,
    "gross_sales": 19.99,
    "refund_amount": null,
    "is_canceled": false,
    "is_refunded": false,
    "is_returned": false,
    "latitude": 39.4162,
    "longitude": -121.7189
  },
  {
    "order_id": "577026637683396642",
    "reporting_date": "2025-07-03",
    "customer_id": "user9016823253388",
    "source_type": "Sales",
    "city": "Mesquite",
    "state": "New Mexico",
    "state_code": "NM",
    "zipcode": "88048",
    "units_sold": 1,
    "order_sales": 25.25,
    "gross_sales": 34.99,
    "refund_amount": null,
    "is_canceled": false,
    "is_refunded": false,
    "is_returned": false,
    "latitude": 32.146,
    "longitude": -106.6676
  },
  {
    "order_id": "577026636867605279",
    "reporting_date": "2025-07-03",
    "customer_id": "00munchies00",
    "source_type": "Sales",
    "city": "Jonesboro",
    "state": "Georgia",
    "state_code": "GA",
    "zipcode": "30236",
    "units_sold": 1,
    "order_sales": 16.14,
    "gross_sales": 19.99,
    "refund_amount": null,
    "is_canceled": false,
    "is_refunded": false,
    "is_returned": false,
    "latitude": 33.5242,
    "longitude": -84.359
  },
  {
    "order_id": "577026636447060643",
    "reporting_date": "2025-07-03",
    "customer_id": "carolina_foodie",
    "source_type": "Sales",
    "city": "Wellborn",
    "state": "Florida",
    "state_code": "FL",
    "zipcode": "32094",
    "units_sold": 1,
    "order_sales": 16.14,
    "gross_sales": 19.99,
    "refund_amount": null,
    "is_canceled": false,
    "is_refunded": false,
    "is_returned": false,
    "latitude": 30.1796,
    "longitude": -82.8505
  },
  {
    "order_id": "577026632517914878",
    "reporting_date": "2025-07-03",
    "customer_id": "k.vonsha",
    "source_type": "Sales",
    "city": "Spring",
    "state": "Texas",
    "state_code": "TX",
    "zipcode": "77389",
    "units_sold": 1,
    "order_sales": 11.2,
    "gross_sales": 19.99,
    "refund_amount": null,
    "is_canceled": false,
    "is_refunded": false,
    "is_returned": false,
    "latitude": 30.1044,
    "longitude": -95.5066
  },
  {
    "order_id": "577026615730278600",
    "reporting_date": "2025-07-03",
    "customer_id": "angemariscal",
    "source_type": "Sales",
    "city": "Los Angeles",
    "state": "California",
    "state_code": "CA",
    "zipcode": "90022",
    "units_sold": 2,
    "order_sales": 53.16,
    "gross_sales": 69.98,
    "refund_amount": null,
    "is_canceled": false,
    "is_refunded": false,
    "is_returned": false,
    "latitude": 34.0245,
    "longitude": -118.1561
  },
  {
    "order_id": "577026632043237535",
    "reporting_date": "2025-07-03",
    "customer_id": "elizabeth.tezen",
    "source_type": "Sales",
    "city": "Jamestown",
    "state": "Kentucky",
    "state_code": "KY",
    "zipcode": "42629",
    "units_sold": 1,
    "order_sales": 16.14,
    "gross_sales": 19.99,
    "refund_amount": null,
    "is_canceled": false,
    "is_refunded": false,
    "is_returned": false,
    "latitude": 36.968,
    "longitude": -85.0968
  },
  {
    "order_id": "577026631392989649",
    "reporting_date": "2025-07-03",
    "customer_id": "michellemcmurtry",
    "source_type": "Sales",
    "city": "Vancouver",
    "state": "Washington",
    "state_code": "WA",
    "zipcode": "98682",
    "units_sold": 1,
    "order_sales": 16.14,
    "gross_sales": 19.99,
    "refund_amount": null,
    "is_canceled": false,
    "is_refunded": false,
    "is_returned": false,
    "latitude": 45.6644,
    "longitude": -122.5212
  },
  {
    "order_id": "577026629692068239",
    "reporting_date": "2025-07-03",
    "customer_id": "yoa987",
    "source_type": "Sales",
    "city": "Key Largo",
    "state": "Florida",
    "state_code": "FL",
    "zipcode": "33037",
    "units_sold": 1,
    "order_sales": 16.14,
    "gross_sales": 19.99,
    "refund_amount": null,
    "is_canceled": false,
    "is_refunded": false,
    "is_returned": false,
    "latitude": 25.0865,
    "longitude": -80.4473
  },
  {
    "order_id": "577026627271561264",
    "reporting_date": "2025-07-03",
    "customer_id": "mrs.sag1204",
    "source_type": "Sales",
    "city": "Greensboro",
    "state": "North Carolina",
    "state_code": "NC",
    "zipcode": "27406",
    "units_sold": 1,
    "order_sales": 20.2,
    "gross_sales": 34.99,
    "refund_amount": null,
    "is_canceled": false,
    "is_refunded": false,
    "is_returned": false,
    "latitude": 36.022,
    "longitude": -79.7821
  },
  {
    "order_id": "577026626074677404",
    "reporting_date": "2025-07-03",
    "customer_id": "jrose.n",
    "source_type": "Sales",
    "city": "Randolph",
    "state": "Massachusetts",
    "state_code": "MA",
    "zipcode": "02368",
    "units_sold": 1,
    "order_sales": 11.2,
    "gross_sales": 19.99,
    "refund_amount": null,
    "is_canceled": false,
    "is_refunded": false,
    "is_returned": false,
    "latitude": 42.1736,
    "longitude": -71.0514
  },
  {
    "order_id": "577026625202524247",
    "reporting_date": "2025-07-03",
    "customer_id": "mari436194",
    "source_type": "Sales",
    "city": "Screven",
    "state": "Georgia",
    "state_code": "GA",
    "zipcode": "31560",
    "units_sold": 2,
    "order_sales": 32.28,
    "gross_sales": 39.98,
    "refund_amount": null,
    "is_canceled": false,
    "is_refunded": false,
    "is_returned": false,
    "latitude": 31.5168,
    "longitude": -82.0397
  },
  {
    "order_id": "577026624323490087",
    "reporting_date": "2025-07-03",
    "customer_id": "jeremiahsnelling77",
    "source_type": "Sales",
    "city": "Chewelah",
    "state": "Washington",
    "state_code": "WA",
    "zipcode": "99109",
    "units_sold": 2,
    "order_sales": 47.86,
    "gross_sales": 69.98,
    "refund_amount": null,
    "is_canceled": false,
    "is_refunded": false,
    "is_returned": false,
    "latitude": 48.2876,
    "longitude": -117.7754
  },
  {
    "order_id": "577026622926525296",
    "reporting_date": "2025-07-03",
    "customer_id": "mommaroz",
    "source_type": "Sales",
    "city": "San Diego",
    "state": "California",
    "state_code": "CA",
    "zipcode": "92113",
    "units_sold": 2,
    "order_sales": 44.75,
    "gross_sales": 69.98,
    "refund_amount": null,
    "is_canceled": false,
    "is_refunded": false,
    "is_returned": false,
    "latitude": 32.697,
    "longitude": -117.1153
  },
  {
    "order_id": "577026621506293889",
    "reporting_date": "2025-07-03",
    "customer_id": "rachaeljewell308",
    "source_type": "Sales",
    "city": "Castro Valley",
    "state": "California",
    "state_code": "CA",
    "zipcode": "94546",
    "units_sold": 1,
    "order_sales": 14.53,
    "gross_sales": 19.99,
    "refund_amount": null,
    "is_canceled": false,
    "is_refunded": false,
    "is_returned": false,
    "latitude": 37.7015,
    "longitude": -122.0782
  },
  {
    "order_id": "577026619322045388",
    "reporting_date": "2025-07-03",
    "customer_id": "pipekj20202",
    "source_type": "Sales",
    "city": "Jacksonville",
    "state": "Florida",
    "state_code": "FL",
    "zipcode": "32244",
    "units_sold": 1,
    "order_sales": 11.2,
    "gross_sales": 19.99,
    "refund_amount": null,
    "is_canceled": false,
    "is_refunded": false,
    "is_returned": false,
    "latitude": 30.2231,
    "longitude": -81.7556
  },
  {
    "order_id": "577026619164103043",
    "reporting_date": "2025-07-03",
    "customer_id": "ncauriguzman",
    "source_type": "Sales",
    "city": "New London",
    "state": "Connecticut",
    "state_code": "CT",
    "zipcode": "06320",
    "units_sold": 1,
    "order_sales": 14.53,
    "gross_sales": 19.99,
    "refund_amount": null,
    "is_canceled": false,
    "is_refunded": false,
    "is_returned": false,
    "latitude": 41.3507,
    "longitude": -72.1062
  },
  {
    "order_id": "577026619071828969",
    "reporting_date": "2025-07-03",
    "customer_id": "jarrodreese",
    "source_type": "Sales",
    "city": "Stanton",
    "state": "Nebraska",
    "state_code": "NE",
    "zipcode": "68779",
    "units_sold": 1,
    "order_sales": 16.14,
    "gross_sales": 19.99,
    "refund_amount": null,
    "is_canceled": false,
    "is_refunded": false,
    "is_returned": false,
    "latitude": 41.9076,
    "longitude": -97.214
  },
  {
    "order_id": "577026641383493673",
    "reporting_date": "2025-07-03",
    "customer_id": "graceee_kelly_",
    "source_type": "Sales",
    "city": "Highland",
    "state": "California",
    "state_code": "CA",
    "zipcode": "92346",
    "units_sold": 1,
    "order_sales": 12.91,
    "gross_sales": 19.99,
    "refund_amount": null,
    "is_canceled": false,
    "is_refunded": false,
    "is_returned": false,
    "latitude": 34.1283,
    "longitude": -117.2087
  },
  {
    "order_id": "577026642507698641",
    "reporting_date": "2025-07-03",
    "customer_id": "shannie02050611",
    "source_type": "Sales",
    "city": "Ogden",
    "state": "Utah",
    "state_code": "UT",
    "zipcode": "84404",
    "units_sold": 1,
    "order_sales": 21.26,
    "gross_sales": 34.99,
    "refund_amount": null,
    "is_canceled": false,
    "is_refunded": false,
    "is_returned": false,
    "latitude": 41.2627,
    "longitude": -111.9837
  },
  {
    "order_id": "577026643892604960",
    "reporting_date": "2025-07-03",
    "customer_id": "jasmine8697",
    "source_type": "Sales",
    "city": "Las Vegas",
    "state": "Nevada",
    "state_code": "NV",
    "zipcode": "89131",
    "units_sold": 1,
    "order_sales": 11.62,
    "gross_sales": 19.99,
    "refund_amount": null,
    "is_canceled": false,
    "is_refunded": false,
    "is_returned": false,
    "latitude": 36.2956,
    "longitude": -115.2419
  },
  {
    "order_id": "577026644140593554",
    "reporting_date": "2025-07-03",
    "customer_id": "nericarol",
    "source_type": "Sales",
    "city": "Lake Worth",
    "state": "Florida",
    "state_code": "FL",
    "zipcode": "33461",
    "units_sold": 1,
    "order_sales": 14.53,
    "gross_sales": 19.99,
    "refund_amount": null,
    "is_canceled": false,
    "is_refunded": false,
    "is_returned": false,
    "latitude": 26.6232,
    "longitude": -80.0946
  },
  {
    "order_id": "577026675729797199",
    "reporting_date": "2025-07-03",
    "customer_id": "bryanna2711",
    "source_type": "Sales",
    "city": "Port Arthur",
    "state": "Texas",
    "state_code": "TX",
    "zipcode": "77642",
    "units_sold": 1,
    "order_sales": 16.14,
    "gross_sales": 19.99,
    "refund_amount": null,
    "is_canceled": false,
    "is_refunded": false,
    "is_returned": false,
    "latitude": 29.9212,
    "longitude": -93.927
  },
  {
    "order_id": "577026674695770681",
    "reporting_date": "2025-07-03",
    "customer_id": "marthagarciarey",
    "source_type": "Sales",
    "city": "Garland",
    "state": "Texas",
    "state_code": "TX",
    "zipcode": "75041",
    "units_sold": 1,
    "order_sales": 14.0,
    "gross_sales": 19.99,
    "refund_amount": null,
    "is_canceled": false,
    "is_refunded": false,
    "is_returned": false,
    "latitude": 32.8794,
    "longitude": -96.6411
  },
  {
    "order_id": "577026670784320057",
    "reporting_date": "2025-07-03",
    "customer_id": "greysie92",
    "source_type": "Sales",
    "city": "Neotsu",
    "state": "Oregon",
    "state_code": "OR",
    "zipcode": "97364",
    "units_sold": 1,
    "order_sales": 16.14,
    "gross_sales": 19.99,
    "refund_amount": null,
    "is_canceled": false,
    "is_refunded": false,
    "is_returned": false,
    "latitude": 44.9988,
    "longitude": -123.9843
  },
  {
    "order_id": "577026669285511648",
    "reporting_date": "2025-07-03",
    "customer_id": "kimberlyjohnsonwoodward",
    "source_type": "Sales",
    "city": "Geismar",
    "state": "Louisiana",
    "state_code": "LA",
    "zipcode": "70734",
    "units_sold": 1,
    "order_sales": 16.14,
    "gross_sales": 19.99,
    "refund_amount": null,
    "is_canceled": false,
    "is_refunded": false,
    "is_returned": false,
    "latitude": 30.2196,
    "longitude": -91.0079
  },
  {
    "order_id": "577026668722033599",
    "reporting_date": "2025-07-03",
    "customer_id": "meloselo",
    "source_type": "Sales",
    "city": "Belle Glade",
    "state": "Florida",
    "state_code": "FL",
    "zipcode": "33430",
    "units_sold": 1,
    "order_sales": 16.14,
    "gross_sales": 19.99,
    "refund_amount": null,
    "is_canceled": false,
    "is_refunded": false,
    "is_returned": false,
    "latitude": 26.6843,
    "longitude": -80.6724
  },
  {
    "order_id": "577026667794633382",
    "reporting_date": "2025-07-03",
    "customer_id": "wolfebug76",
    "source_type": "Sales",
    "city": "Portsmouth",
    "state": "Ohio",
    "state_code": "OH",
    "zipcode": "45662",
    "units_sold": 1,
    "order_sales": 16.14,
    "gross_sales": 19.99,
    "refund_amount": null,
    "is_canceled": false,
    "is_refunded": false,
    "is_returned": false,
    "latitude": 38.7932,
    "longitude": -82.9306
  },
  {
    "order_id": "577026667226632455",
    "reporting_date": "2025-07-03",
    "customer_id": "bigdave1589",
    "source_type": "Sales",
    "city": "Raleigh",
    "state": "North Carolina",
    "state_code": "NC",
    "zipcode": "27615",
    "units_sold": 1,
    "order_sales": 16.14,
    "gross_sales": 19.99,
    "refund_amount": null,
    "is_canceled": false,
    "is_refunded": false,
    "is_returned": false,
    "latitude": 35.8887,
    "longitude": -78.6393
  },
  {
    "order_id": "577026662616175533",
    "reporting_date": "2025-07-03",
    "customer_id": "user.53647483928",
    "source_type": "Sales",
    "city": "Mitchell",
    "state": "South Dakota",
    "state_code": "SD",
    "zipcode": "57301",
    "units_sold": 1,
    "order_sales": 14.85,
    "gross_sales": 19.99,
    "refund_amount": null,
    "is_canceled": false,
    "is_refunded": false,
    "is_returned": false,
    "latitude": 43.7094,
    "longitude": -98.0298
  },
  {
    "order_id": "577026660899852928",
    "reporting_date": "2025-07-03",
    "customer_id": "1a.l.i.a3",
    "source_type": "Sales",
    "city": "Silver City",
    "state": "New Mexico",
    "state_code": "NM",
    "zipcode": "88061",
    "units_sold": 1,
    "order_sales": 26.58,
    "gross_sales": 34.99,
    "refund_amount": null,
    "is_canceled": false,
    "is_refunded": false,
    "is_returned": false,
    "latitude": 32.79,
    "longitude": -108.2749
  },
  {
    "order_id": "577026659998208762",
    "reporting_date": "2025-07-03",
    "customer_id": "vanesita1010",
    "source_type": "Sales",
    "city": "Rosharon",
    "state": "Texas",
    "state_code": "TX",
    "zipcode": "77583",
    "units_sold": 1,
    "order_sales": 14.53,
    "gross_sales": 19.99,
    "refund_amount": null,
    "is_canceled": false,
    "is_refunded": false,
    "is_returned": false,
    "latitude": 29.4203,
    "longitude": -95.4537
  },
  {
    "order_id": "577026658766524919",
    "reporting_date": "2025-07-03",
    "customer_id": "chrismartinez331",
    "source_type": "Sales",
    "city": "Denver",
    "state": "Colorado",
    "state_code": "CO",
    "zipcode": "80219",
    "units_sold": 1,
    "order_sales": 16.14,
    "gross_sales": 19.99,
    "refund_amount": null,
    "is_canceled": false,
    "is_refunded": false,
    "is_returned": false,
    "latitude": 39.6956,
    "longitude": -105.0341
  },
  {
    "order_id": "577026658594426918",
    "reporting_date": "2025-07-03",
    "customer_id": "pauaser",
    "source_type": "Sales",
    "city": "Richfield",
    "state": "Minnesota",
    "state_code": "MN",
    "zipcode": "55423",
    "units_sold": 2,
    "order_sales": 22.4,
    "gross_sales": 39.98,
    "refund_amount": null,
    "is_canceled": false,
    "is_refunded": false,
    "is_returned": false,
    "latitude": 44.8756,
    "longitude": -93.2553
  },
  {
    "order_id": "577026657511051851",
    "reporting_date": "2025-07-03",
    "customer_id": "esmeralda_xox",
    "source_type": "Sales",
    "city": "Porterville",
    "state": "California",
    "state_code": "CA",
    "zipcode": "93257",
    "units_sold": 1,
    "order_sales": 11.62,
    "gross_sales": 19.99,
    "refund_amount": 11.62,
    "is_canceled": false,
    "is_refunded": true,
    "is_returned": true,
    "latitude": 36.0686,
    "longitude": -119.0315
  },
  {
    "order_id": "577026657094177430",
    "reporting_date": "2025-07-03",
    "customer_id": "franklinsegovia2",
    "source_type": "Sales",
    "city": "Dallas",
    "state": "Texas",
    "state_code": "TX",
    "zipcode": "75240",
    "units_sold": 2,
    "order_sales": 22.4,
    "gross_sales": 39.98,
    "refund_amount": null,
    "is_canceled": false,
    "is_refunded": false,
    "is_returned": false,
    "latitude": 32.9374,
    "longitude": -96.7872
  },
  {
    "order_id": "577026656512283556",
    "reporting_date": "2025-07-03",
    "customer_id": "lupitamarquez3867",
    "source_type": "Sales",
    "city": "Odessa",
    "state": "Texas",
    "state_code": "TX",
    "zipcode": "79763",
    "units_sold": 1,
    "order_sales": 13.72,
    "gross_sales": 19.99,
    "refund_amount": null,
    "is_canceled": false,
    "is_refunded": false,
    "is_returned": false,
    "latitude": 31.8341,
    "longitude": -102.4162
  },
  {
    "order_id": "577026655964009229",
    "reporting_date": "2025-07-03",
    "customer_id": "alejandra.juarez8",
    "source_type": "Sales",
    "city": "Fort Pierre",
    "state": "South Dakota",
    "state_code": "SD",
    "zipcode": "57532",
    "units_sold": 1,
    "order_sales": 14.53,
    "gross_sales": 19.99,
    "refund_amount": null,
    "is_canceled": false,
    "is_refunded": false,
    "is_returned": false,
    "latitude": 44.3426,
    "longitude": -100.4043
  },
  {
    "order_id": "577026655593468654",
    "reporting_date": "2025-07-03",
    "customer_id": "ronflock265",
    "source_type": "Sales",
    "city": "Clinton",
    "state": "Wisconsin",
    "state_code": "WI",
    "zipcode": "53525",
    "units_sold": 1,
    "order_sales": 12.35,
    "gross_sales": 19.99,
    "refund_amount": null,
    "is_canceled": false,
    "is_refunded": false,
    "is_returned": false,
    "latitude": 42.5535,
    "longitude": -88.8705
  },
  {
    "order_id": "577026654388785318",
    "reporting_date": "2025-07-03",
    "customer_id": "absolutely.alyssa",
    "source_type": "Sales",
    "city": "Mount Horeb",
    "state": "Wisconsin",
    "state_code": "WI",
    "zipcode": "53572",
    "units_sold": 1,
    "order_sales": 16.14,
    "gross_sales": 19.99,
    "refund_amount": null,
    "is_canceled": false,
    "is_refunded": false,
    "is_returned": false,
    "latitude": 43.002,
    "longitude": -89.7414
  },
  {
    "order_id": "577026651104645875",
    "reporting_date": "2025-07-03",
    "customer_id": "brrodiesthename",
    "source_type": "Sales",
    "city": "Waldorf",
    "state": "Maryland",
    "state_code": "MD",
    "zipcode": "20602",
    "units_sold": 1,
    "order_sales": 14.0,
    "gross_sales": 19.99,
    "refund_amount": null,
    "is_canceled": false,
    "is_refunded": false,
    "is_returned": false,
    "latitude": 38.584,
    "longitude": -76.8942
  },
  {
    "order_id": "577026649906778809",
    "reporting_date": "2025-07-03",
    "customer_id": "herlindaochoa",
    "source_type": "Sales",
    "city": "Austin",
    "state": "Texas",
    "state_code": "TX",
    "zipcode": "78724",
    "units_sold": 1,
    "order_sales": 16.27,
    "gross_sales": 34.99,
    "refund_amount": null,
    "is_canceled": false,
    "is_refunded": false,
    "is_returned": false,
    "latitude": 30.296,
    "longitude": -97.6396
  },
  {
    "order_id": "577026649558782824",
    "reporting_date": "2025-07-03",
    "customer_id": "kamtz8",
    "source_type": "Sales",
    "city": "Rio Rancho",
    "state": "New Mexico",
    "state_code": "NM",
    "zipcode": "87124",
    "units_sold": 1,
    "order_sales": 9.8,
    "gross_sales": 19.99,
    "refund_amount": null,
    "is_canceled": false,
    "is_refunded": false,
    "is_returned": false,
    "latitude": 35.2493,
    "longitude": -106.6818
  },
  {
    "order_id": "577026647616491763",
    "reporting_date": "2025-07-03",
    "customer_id": "bivguz1",
    "source_type": "Sales",
    "city": "Bronx",
    "state": "New York",
    "state_code": "NY",
    "zipcode": "10455",
    "units_sold": 1,
    "order_sales": 12.92,
    "gross_sales": 19.99,
    "refund_amount": null,
    "is_canceled": false,
    "is_refunded": false,
    "is_returned": false,
    "latitude": 40.8153,
    "longitude": -73.9072
  },
  {
    "order_id": "577026647389671524",
    "reporting_date": "2025-07-03",
    "customer_id": "luzwalker311",
    "source_type": "Sales",
    "city": "High Point",
    "state": "North Carolina",
    "state_code": "NC",
    "zipcode": "27265",
    "units_sold": 1,
    "order_sales": 12.92,
    "gross_sales": 19.99,
    "refund_amount": null,
    "is_canceled": false,
    "is_refunded": false,
    "is_returned": false,
    "latitude": 36.0036,
    "longitude": -80.0036
  },
  {
    "order_id": "577026647384888308",
    "reporting_date": "2025-07-03",
    "customer_id": "sheri_mar",
    "source_type": "Sales",
    "city": "Chapel Hill",
    "state": "North Carolina",
    "state_code": "NC",
    "zipcode": "27517",
    "units_sold": 1,
    "order_sales": 13.72,
    "gross_sales": 19.99,
    "refund_amount": null,
    "is_canceled": false,
    "is_refunded": false,
    "is_returned": false,
    "latitude": 35.9182,
    "longitude": -79.0035
  },
  {
    "order_id": "577026647304344275",
    "reporting_date": "2025-07-03",
    "customer_id": "ericbrewer00",
    "source_type": "Sales",
    "city": "Taylor",
    "state": "Michigan",
    "state_code": "MI",
    "zipcode": "48180",
    "units_sold": 1,
    "order_sales": 14.53,
    "gross_sales": 19.99,
    "refund_amount": null,
    "is_canceled": false,
    "is_refunded": false,
    "is_returned": false,
    "latitude": 42.2317,
    "longitude": -83.2673
  },
  {
    "order_id": "577026616564945733",
    "reporting_date": "2025-07-03",
    "customer_id": "blades_edge",
    "source_type": "Sales",
    "city": "Odessa",
    "state": "Texas",
    "state_code": "TX",
    "zipcode": "79763",
    "units_sold": 1,
    "order_sales": 16.14,
    "gross_sales": 19.99,
    "refund_amount": null,
    "is_canceled": false,
    "is_refunded": false,
    "is_returned": false,
    "latitude": 31.8341,
    "longitude": -102.4162
  },
  {
    "order_id": "577026614871822751",
    "reporting_date": "2025-07-03",
    "customer_id": "noluv089",
    "source_type": "Sales",
    "city": "Chicago",
    "state": "Illinois",
    "state_code": "IL",
    "zipcode": "60647",
    "units_sold": 1,
    "order_sales": 21.26,
    "gross_sales": 34.99,
    "refund_amount": null,
    "is_canceled": false,
    "is_refunded": false,
    "is_returned": false,
    "latitude": 41.9209,
    "longitude": -87.7043
  },
  {
    "order_id": "577026562968031425",
    "reporting_date": "2025-07-03",
    "customer_id": "rhondaroberts83",
    "source_type": "Sales",
    "city": "Midland",
    "state": "Texas",
    "state_code": "TX",
    "zipcode": "79712",
    "units_sold": 1,
    "order_sales": 14.53,
    "gross_sales": 19.99,
    "refund_amount": null,
    "is_canceled": false,
    "is_refunded": false,
    "is_returned": false,
    "latitude": 31.8693,
    "longitude": -102.0317
  },
  {
    "order_id": "577026570612281591",
    "reporting_date": "2025-07-03",
    "customer_id": "___payton1111",
    "source_type": "Sales",
    "city": "Cincinnati",
    "state": "Ohio",
    "state_code": "OH",
    "zipcode": "45223",
    "units_sold": 1,
    "order_sales": 15.33,
    "gross_sales": 19.99,
    "refund_amount": null,
    "is_canceled": false,
    "is_refunded": false,
    "is_returned": false,
    "latitude": 39.1696,
    "longitude": -84.5478
  },
  {
    "order_id": "577026582292762954",
    "reporting_date": "2025-07-03",
    "customer_id": "jackie.guillen72",
    "source_type": "Sales",
    "city": "Houston",
    "state": "Texas",
    "state_code": "TX",
    "zipcode": "77063",
    "units_sold": 2,
    "order_sales": 25.83,
    "gross_sales": 39.98,
    "refund_amount": null,
    "is_canceled": false,
    "is_refunded": false,
    "is_returned": false,
    "latitude": 29.7348,
    "longitude": -95.522
  },
  {
    "order_id": "577026581990577032",
    "reporting_date": "2025-07-03",
    "customer_id": "shawntaylorjohnson",
    "source_type": "Sales",
    "city": "South Fulton",
    "state": "Tennessee",
    "state_code": "TN",
    "zipcode": "38257",
    "units_sold": 1,
    "order_sales": 14.53,
    "gross_sales": 19.99,
    "refund_amount": null,
    "is_canceled": false,
    "is_refunded": false,
    "is_returned": false,
    "latitude": 36.4814,
    "longitude": -88.8808
  },
  {
    "order_id": "577026579909284648",
    "reporting_date": "2025-07-03",
    "customer_id": "wandering.juan",
    "source_type": "Sales",
    "city": "Springfield",
    "state": "Virginia",
    "state_code": "VA",
    "zipcode": "22153",
    "units_sold": 1,
    "order_sales": 11.63,
    "gross_sales": 19.99,
    "refund_amount": null,
    "is_canceled": false,
    "is_refunded": false,
    "is_returned": false,
    "latitude": 38.7449,
    "longitude": -77.237
  },
  {
    "order_id": "577026578858611521",
    "reporting_date": "2025-07-03",
    "customer_id": "melllyymell_",
    "source_type": "Sales",
    "city": "Tomball",
    "state": "Texas",
    "state_code": "TX",
    "zipcode": "77377",
    "units_sold": 2,
    "order_sales": 7.28,
    "gross_sales": 39.98,
    "refund_amount": null,
    "is_canceled": false,
    "is_refunded": false,
    "is_returned": false,
    "latitude": 30.0615,
    "longitude": -95.6821
  },
  {
    "order_id": "577026578797531405",
    "reporting_date": "2025-07-03",
    "customer_id": "eoney6",
    "source_type": "Sales",
    "city": "Tucson",
    "state": "Arizona",
    "state_code": "AZ",
    "zipcode": "85756",
    "units_sold": 1,
    "order_sales": 16.27,
    "gross_sales": 34.99,
    "refund_amount": null,
    "is_canceled": false,
    "is_refunded": false,
    "is_returned": false,
    "latitude": 32.0839,
    "longitude": -110.9004
  },
  {
    "order_id": "577026578229924117",
    "reporting_date": "2025-07-03",
    "customer_id": "wiseandshine",
    "source_type": "Sales",
    "city": "Waterford",
    "state": "Michigan",
    "state_code": "MI",
    "zipcode": "48328",
    "units_sold": 2,
    "order_sales": 27.37,
    "gross_sales": 49.98,
    "refund_amount": 27.37,
    "is_canceled": false,
    "is_refunded": true,
    "is_returned": true,
    "latitude": 42.6429,
    "longitude": -83.3546
  },
  {
    "order_id": "577026577814491541",
    "reporting_date": "2025-07-03",
    "customer_id": "asamari.creations",
    "source_type": "Sales",
    "city": "Suitland",
    "state": "Maryland",
    "state_code": "MD",
    "zipcode": "20746",
    "units_sold": 2,
    "order_sales": 19.36,
    "gross_sales": 39.98,
    "refund_amount": null,
    "is_canceled": false,
    "is_refunded": false,
    "is_returned": false,
    "latitude": 38.8425,
    "longitude": -76.9222
  },
  {
    "order_id": "577026577287254270",
    "reporting_date": "2025-07-03",
    "customer_id": "mexicana99",
    "source_type": "Sales",
    "city": "Lawrence",
    "state": "Massachusetts",
    "state_code": "MA",
    "zipcode": "01841",
    "units_sold": 1,
    "order_sales": 15.99,
    "gross_sales": 19.99,
    "refund_amount": null,
    "is_canceled": false,
    "is_refunded": false,
    "is_returned": false,
    "latitude": 42.7115,
    "longitude": -71.167
  },
  {
    "order_id": "577026577069740417",
    "reporting_date": "2025-07-03",
    "customer_id": "ginar264",
    "source_type": "Sales",
    "city": "Philadelphia",
    "state": "Pennsylvania",
    "state_code": "PA",
    "zipcode": "19131",
    "units_sold": 1,
    "order_sales": 11.9,
    "gross_sales": 19.99,
    "refund_amount": null,
    "is_canceled": false,
    "is_refunded": false,
    "is_returned": false,
    "latitude": 39.9845,
    "longitude": -75.2282
  },
  {
    "order_id": "577026576820965949",
    "reporting_date": "2025-07-03",
    "customer_id": "user3429135574014",
    "source_type": "Sales",
    "city": "Humble",
    "state": "Texas",
    "state_code": "TX",
    "zipcode": "77396",
    "units_sold": 1,
    "order_sales": 16.14,
    "gross_sales": 19.99,
    "refund_amount": null,
    "is_canceled": false,
    "is_refunded": false,
    "is_returned": false,
    "latitude": 29.9507,
    "longitude": -95.2622
  },
  {
    "order_id": "577026572154933959",
    "reporting_date": "2025-07-03",
    "customer_id": "nichiiipp",
    "source_type": "Sales",
    "city": "Chelsea",
    "state": "Massachusetts",
    "state_code": "MA",
    "zipcode": "02150",
    "units_sold": 1,
    "order_sales": 16.14,
    "gross_sales": 19.99,
    "refund_amount": null,
    "is_canceled": false,
    "is_refunded": false,
    "is_returned": false,
    "latitude": 42.3963,
    "longitude": -71.0325
  },
  {
    "order_id": "577026570942844957",
    "reporting_date": "2025-07-03",
    "customer_id": "rohlfinggloria",
    "source_type": "Sales",
    "city": "Carlisle",
    "state": "Pennsylvania",
    "state_code": "PA",
    "zipcode": "17015",
    "units_sold": 2,
    "order_sales": 32.28,
    "gross_sales": 39.98,
    "refund_amount": null,
    "is_canceled": false,
    "is_refunded": false,
    "is_returned": false,
    "latitude": 40.1772,
    "longitude": -77.2312
  },
  {
    "order_id": "577026570181448245",
    "reporting_date": "2025-07-03",
    "customer_id": "michelleruiz1977",
    "source_type": "Sales",
    "city": "West Covina",
    "state": "California",
    "state_code": "CA",
    "zipcode": "91790",
    "units_sold": 1,
    "order_sales": 26.58,
    "gross_sales": 34.99,
    "refund_amount": null,
    "is_canceled": false,
    "is_refunded": false,
    "is_returned": false,
    "latitude": 34.0673,
    "longitude": -117.9366
  },
  {
    "order_id": "577026610355147004",
    "reporting_date": "2025-07-03",
    "customer_id": "bbq_zombies",
    "source_type": "Sales",
    "city": "DeRidder",
    "state": "Louisiana",
    "state_code": "LA",
    "zipcode": "70634",
    "units_sold": 1,
    "order_sales": 14.53,
    "gross_sales": 19.99,
    "refund_amount": null,
    "is_canceled": false,
    "is_refunded": false,
    "is_returned": false,
    "latitude": 30.8287,
    "longitude": -93.2685
  },
  {
    "order_id": "577026570130657447",
    "reporting_date": "2025-07-03",
    "customer_id": "shellimay83",
    "source_type": "Sales",
    "city": "Princeton",
    "state": "Minnesota",
    "state_code": "MN",
    "zipcode": "55371",
    "units_sold": 2,
    "order_sales": 32.54,
    "gross_sales": 69.98,
    "refund_amount": null,
    "is_canceled": false,
    "is_refunded": false,
    "is_returned": false,
    "latitude": 45.5851,
    "longitude": -93.5961
  },
  {
    "order_id": "577026569776501260",
    "reporting_date": "2025-07-03",
    "customer_id": "mr.rojas.gtz",
    "source_type": "Sales",
    "city": "Phoenix",
    "state": "Arizona",
    "state_code": "AZ",
    "zipcode": "85037",
    "units_sold": 2,
    "order_sales": 42.53,
    "gross_sales": 69.98,
    "refund_amount": null,
    "is_canceled": false,
    "is_refunded": false,
    "is_returned": false,
    "latitude": 33.4913,
    "longitude": -112.2468
  },
  {
    "order_id": "577026569756905662",
    "reporting_date": "2025-07-03",
    "customer_id": "kioshymn_",
    "source_type": "Sales",
    "city": "Lake Elmo",
    "state": "Minnesota",
    "state_code": "MN",
    "zipcode": "55042",
    "units_sold": 1,
    "order_sales": 16.27,
    "gross_sales": 34.99,
    "refund_amount": null,
    "is_canceled": false,
    "is_refunded": false,
    "is_returned": false,
    "latitude": 44.9946,
    "longitude": -92.9056
  },
  {
    "order_id": "577026569136149081",
    "reporting_date": "2025-07-03",
    "customer_id": "soyintensa",
    "source_type": "Sales",
    "city": "Sheffield",
    "state": "Alabama",
    "state_code": "AL",
    "zipcode": "35660",
    "units_sold": 1,
    "order_sales": 16.14,
    "gross_sales": 19.99,
    "refund_amount": null,
    "is_canceled": false,
    "is_refunded": false,
    "is_returned": false,
    "latitude": 34.7578,
    "longitude": -87.6971
  },
  {
    "order_id": "577026568945701657",
    "reporting_date": "2025-07-03",
    "customer_id": "user15221786171612",
    "source_type": "Sales",
    "city": "Pingree Grove",
    "state": "Illinois",
    "state_code": "IL",
    "zipcode": "60140",
    "units_sold": 1,
    "order_sales": 16.14,
    "gross_sales": 19.99,
    "refund_amount": null,
    "is_canceled": false,
    "is_refunded": false,
    "is_returned": false,
    "latitude": 42.0807,
    "longitude": -88.517
  },
  {
    "order_id": "577026568415777487",
    "reporting_date": "2025-07-03",
    "customer_id": "ofegomez25",
    "source_type": "Sales",
    "city": "Plainfield",
    "state": "New Jersey",
    "state_code": "NJ",
    "zipcode": "07060",
    "units_sold": 1,
    "order_sales": 11.62,
    "gross_sales": 19.99,
    "refund_amount": null,
    "is_canceled": false,
    "is_refunded": false,
    "is_returned": false,
    "latitude": 40.6152,
    "longitude": -74.415
  },
  {
    "order_id": "577026567782961408",
    "reporting_date": "2025-07-03",
    "customer_id": "pure_kena",
    "source_type": "Sales",
    "city": "Spring",
    "state": "Texas",
    "state_code": "TX",
    "zipcode": "77379",
    "units_sold": 2,
    "order_sales": 25.82,
    "gross_sales": 39.98,
    "refund_amount": null,
    "is_canceled": false,
    "is_refunded": false,
    "is_returned": false,
    "latitude": 30.0377,
    "longitude": -95.5326
  },
  {
    "order_id": "577026566840422827",
    "reporting_date": "2025-07-03",
    "customer_id": "schmoosie",
    "source_type": "Sales",
    "city": "Allentown",
    "state": "Pennsylvania",
    "state_code": "PA",
    "zipcode": "18103",
    "units_sold": 1,
    "order_sales": 11.62,
    "gross_sales": 19.99,
    "refund_amount": null,
    "is_canceled": false,
    "is_refunded": false,
    "is_returned": false,
    "latitude": 40.5891,
    "longitude": -75.4645
  },
  {
    "order_id": "577026565317366387",
    "reporting_date": "2025-07-03",
    "customer_id": "jdenise1723",
    "source_type": "Sales",
    "city": "Jensen Beach",
    "state": "Florida",
    "state_code": "FL",
    "zipcode": "34957",
    "units_sold": 1,
    "order_sales": 14.53,
    "gross_sales": 19.99,
    "refund_amount": null,
    "is_canceled": false,
    "is_refunded": false,
    "is_returned": false,
    "latitude": 27.2356,
    "longitude": -80.2277
  },
  {
    "order_id": "577026564786590712",
    "reporting_date": "2025-07-03",
    "customer_id": "gladys.mott25",
    "source_type": "Sales",
    "city": "Greenwood",
    "state": "Arkansas",
    "state_code": "AR",
    "zipcode": "72936",
    "units_sold": 1,
    "order_sales": 16.73,
    "gross_sales": 24.99,
    "refund_amount": null,
    "is_canceled": false,
    "is_refunded": false,
    "is_returned": false,
    "latitude": 35.1955,
    "longitude": -94.253
  },
  {
    "order_id": "577026564739338428",
    "reporting_date": "2025-07-03",
    "customer_id": "luisedgardoherrera",
    "source_type": "Sales",
    "city": "West Monroe",
    "state": "Louisiana",
    "state_code": "LA",
    "zipcode": "71292",
    "units_sold": 1,
    "order_sales": 14.53,
    "gross_sales": 19.99,
    "refund_amount": null,
    "is_canceled": false,
    "is_refunded": false,
    "is_returned": false,
    "latitude": 32.4566,
    "longitude": -92.1854
  },
  {
    "order_id": "577026564480209491",
    "reporting_date": "2025-07-03",
    "customer_id": "legitcolleen",
    "source_type": "Sales",
    "city": "Nanuet",
    "state": "New York",
    "state_code": "NY",
    "zipcode": "10954",
    "units_sold": 1,
    "order_sales": 12.35,
    "gross_sales": 19.99,
    "refund_amount": null,
    "is_canceled": false,
    "is_refunded": false,
    "is_returned": false,
    "latitude": 41.0977,
    "longitude": -74.0109
  },
  {
    "order_id": "577026582738670420",
    "reporting_date": "2025-07-03",
    "customer_id": "faith222god",
    "source_type": "Sales",
    "city": "San Antonio",
    "state": "Texas",
    "state_code": "TX",
    "zipcode": "78242",
    "units_sold": 2,
    "order_sales": 25.82,
    "gross_sales": 39.98,
    "refund_amount": null,
    "is_canceled": false,
    "is_refunded": false,
    "is_returned": false,
    "latitude": 29.3509,
    "longitude": -98.6109
  },
  {
    "order_id": "577026583245787822",
    "reporting_date": "2025-07-03",
    "customer_id": "mc_carranza",
    "source_type": "Sales",
    "city": "Bell",
    "state": "California",
    "state_code": "CA",
    "zipcode": "90201",
    "units_sold": 1,
    "order_sales": 13.01,
    "gross_sales": 34.99,
    "refund_amount": null,
    "is_canceled": false,
    "is_refunded": false,
    "is_returned": false,
    "latitude": 33.9653,
    "longitude": -118.1515
  },
  {
    "order_id": "577026585018208841",
    "reporting_date": "2025-07-03",
    "customer_id": "jackieg985",
    "source_type": "Sales",
    "city": "Cut Off",
    "state": "Louisiana",
    "state_code": "LA",
    "zipcode": "70345",
    "units_sold": 1,
    "order_sales": 23.79,
    "gross_sales": 34.99,
    "refund_amount": null,
    "is_canceled": false,
    "is_refunded": false,
    "is_returned": false,
    "latitude": 29.5232,
    "longitude": -90.3393
  },
  {
    "order_id": "577026586440798338",
    "reporting_date": "2025-07-03",
    "customer_id": "hayeslove",
    "source_type": "Sales",
    "city": "Portland",
    "state": "Oregon",
    "state_code": "OR",
    "zipcode": "97229",
    "units_sold": 1,
    "order_sales": 26.58,
    "gross_sales": 34.99,
    "refund_amount": null,
    "is_canceled": false,
    "is_refunded": false,
    "is_returned": false,
    "latitude": 45.5483,
    "longitude": -122.8276
  },
  {
    "order_id": "577026607898530528",
    "reporting_date": "2025-07-03",
    "customer_id": "_beinggrace",
    "source_type": "Sales",
    "city": "Jacksonville",
    "state": "Florida",
    "state_code": "FL",
    "zipcode": "32222",
    "units_sold": 1,
    "order_sales": 16.14,
    "gross_sales": 19.99,
    "refund_amount": null,
    "is_canceled": false,
    "is_refunded": false,
    "is_returned": false,
    "latitude": 30.2292,
    "longitude": -81.8131
  },
  {
    "order_id": "577026606000149187",
    "reporting_date": "2025-07-03",
    "customer_id": "amandabramlett845",
    "source_type": "Sales",
    "city": "Karnack",
    "state": "Texas",
    "state_code": "TX",
    "zipcode": "75661",
    "units_sold": 1,
    "order_sales": 12.91,
    "gross_sales": 19.99,
    "refund_amount": null,
    "is_canceled": false,
    "is_refunded": false,
    "is_returned": false,
    "latitude": 32.6205,
    "longitude": -94.2001
  },
  {
    "order_id": "577026605899420593",
    "reporting_date": "2025-07-03",
    "customer_id": "salesmanchirag",
    "source_type": "Sales",
    "city": "San Antonio",
    "state": "Texas",
    "state_code": "TX",
    "zipcode": "78240",
    "units_sold": 1,
    "order_sales": 16.14,
    "gross_sales": 19.99,
    "refund_amount": null,
    "is_canceled": false,
    "is_refunded": false,
    "is_returned": false,
    "latitude": 29.5189,
    "longitude": -98.6006
  },
  {
    "order_id": "577026605616697924",
    "reporting_date": "2025-07-03",
    "customer_id": "hihosylver54",
    "source_type": "Sales",
    "city": "Chino Valley",
    "state": "Arizona",
    "state_code": "AZ",
    "zipcode": "86323",
    "units_sold": 1,
    "order_sales": 19.99,
    "gross_sales": 19.99,
    "refund_amount": null,
    "is_canceled": false,
    "is_refunded": false,
    "is_returned": false,
    "latitude": 34.7757,
    "longitude": -112.4731
  },
  {
    "order_id": "577026602607481063",
    "reporting_date": "2025-07-03",
    "customer_id": "T******* H*****",
    "source_type": "Sales",
    "city": "Wichita Falls",
    "state": "Texas",
    "state_code": "TX",
    "zipcode": "76310",
    "units_sold": 1,
    "order_sales": 14.53,
    "gross_sales": 19.99,
    "refund_amount": null,
    "is_canceled": false,
    "is_refunded": false,
    "is_returned": false,
    "latitude": 33.8581,
    "longitude": -98.5755
  },
  {
    "order_id": "577026600977535817",
    "reporting_date": "2025-07-03",
    "customer_id": "amberkelleyaden",
    "source_type": "Sales",
    "city": "Dongola",
    "state": "Illinois",
    "state_code": "IL",
    "zipcode": "62926",
    "units_sold": 1,
    "order_sales": 17.99,
    "gross_sales": 19.99,
    "refund_amount": null,
    "is_canceled": false,
    "is_refunded": false,
    "is_returned": false,
    "latitude": 37.3712,
    "longitude": -89.1349
  },
  {
    "order_id": "577026600439878239",
    "reporting_date": "2025-07-03",
    "customer_id": "brittanygabriela92",
    "source_type": "Sales",
    "city": "Phoenix",
    "state": "Arizona",
    "state_code": "AZ",
    "zipcode": "85041",
    "units_sold": 1,
    "order_sales": 14.53,
    "gross_sales": 19.99,
    "refund_amount": null,
    "is_canceled": false,
    "is_refunded": false,
    "is_returned": false,
    "latitude": 33.3889,
    "longitude": -112.0954
  },
  {
    "order_id": "577026597975528092",
    "reporting_date": "2025-07-03",
    "customer_id": "yese2026",
    "source_type": "Sales",
    "city": "Stamford",
    "state": "Connecticut",
    "state_code": "CT",
    "zipcode": "06902",
    "units_sold": 2,
    "order_sales": 25.82,
    "gross_sales": 39.98,
    "refund_amount": null,
    "is_canceled": false,
    "is_refunded": false,
    "is_returned": false,
    "latitude": 41.0602,
    "longitude": -73.5445
  },
  {
    "order_id": "577026597151151047",
    "reporting_date": "2025-07-03",
    "customer_id": "just_another_tiktok09",
    "source_type": "Sales",
    "city": "Overland Park",
    "state": "Kansas",
    "state_code": "KS",
    "zipcode": "66212",
    "units_sold": 2,
    "order_sales": 21.96,
    "gross_sales": 39.98,
    "refund_amount": null,
    "is_canceled": false,
    "is_refunded": false,
    "is_returned": false,
    "latitude": 38.9568,
    "longitude": -94.6832
  },
  {
    "order_id": "577026596944843112",
    "reporting_date": "2025-07-03",
    "customer_id": "choc.lit.drop",
    "source_type": "Sales",
    "city": "Columbia",
    "state": "Missouri",
    "state_code": "MO",
    "zipcode": "65202",
    "units_sold": 1,
    "order_sales": 14.53,
    "gross_sales": 19.99,
    "refund_amount": null,
    "is_canceled": false,
    "is_refunded": false,
    "is_returned": false,
    "latitude": 38.995,
    "longitude": -92.3112
  },
  {
    "order_id": "577026596818096558",
    "reporting_date": "2025-07-03",
    "customer_id": "kramirez301",
    "source_type": "Sales",
    "city": "Fairless Hills",
    "state": "Pennsylvania",
    "state_code": "PA",
    "zipcode": "19030",
    "units_sold": 2,
    "order_sales": 22.4,
    "gross_sales": 39.98,
    "refund_amount": null,
    "is_canceled": false,
    "is_refunded": false,
    "is_returned": false,
    "latitude": 40.1748,
    "longitude": -74.8519
  },
  {
    "order_id": "577026596521873911",
    "reporting_date": "2025-07-03",
    "customer_id": "user1854170602388",
    "source_type": "Sales",
    "city": "Fort Dodge",
    "state": "Iowa",
    "state_code": "IA",
    "zipcode": "50501",
    "units_sold": 1,
    "order_sales": 21.26,
    "gross_sales": 34.99,
    "refund_amount": null,
    "is_canceled": false,
    "is_refunded": false,
    "is_returned": false,
    "latitude": 42.5088,
    "longitude": -94.1807
  },
  {
    "order_id": "577026594756137888",
    "reporting_date": "2025-07-03",
    "customer_id": "cmarie_19",
    "source_type": "Sales",
    "city": "Goodyear",
    "state": "Arizona",
    "state_code": "AZ",
    "zipcode": "85395",
    "units_sold": 2,
    "order_sales": 0.0,
    "gross_sales": 0.0,
    "refund_amount": null,
    "is_canceled": false,
    "is_refunded": false,
    "is_returned": false,
    "latitude": 33.479,
    "longitude": -112.3947
  },
  {
    "order_id": "577026594583908931",
    "reporting_date": "2025-07-03",
    "customer_id": "urpeachness",
    "source_type": "Sales",
    "city": "Northfield",
    "state": "Ohio",
    "state_code": "OH",
    "zipcode": "44067",
    "units_sold": 1,
    "order_sales": 12.91,
    "gross_sales": 19.99,
    "refund_amount": null,
    "is_canceled": false,
    "is_refunded": false,
    "is_returned": false,
    "latitude": 41.3208,
    "longitude": -81.5429
  },
  {
    "order_id": "577026594286965559",
    "reporting_date": "2025-07-03",
    "customer_id": "user9309032051640",
    "source_type": "Sales",
    "city": "New Orleans",
    "state": "Louisiana",
    "state_code": "LA",
    "zipcode": "70126",
    "units_sold": 1,
    "order_sales": 14.53,
    "gross_sales": 19.99,
    "refund_amount": null,
    "is_canceled": false,
    "is_refunded": false,
    "is_returned": false,
    "latitude": 29.9987,
    "longitude": -90.0446
  },
  {
    "order_id": "577026593545621585",
    "reporting_date": "2025-07-03",
    "customer_id": "nikkierogers",
    "source_type": "Sales",
    "city": "Mission",
    "state": "Texas",
    "state_code": "TX",
    "zipcode": "78574",
    "units_sold": 2,
    "order_sales": 0.0,
    "gross_sales": 0.0,
    "refund_amount": null,
    "is_canceled": false,
    "is_refunded": false,
    "is_returned": false,
    "latitude": 26.3189,
    "longitude": -98.3701
  },
  {
    "order_id": "577026593342984851",
    "reporting_date": "2025-07-03",
    "customer_id": "darth.severous",
    "source_type": "Sales",
    "city": "Fruitport",
    "state": "Michigan",
    "state_code": "MI",
    "zipcode": "49415",
    "units_sold": 1,
    "order_sales": 13.11,
    "gross_sales": 19.99,
    "refund_amount": null,
    "is_canceled": false,
    "is_refunded": false,
    "is_returned": false,
    "latitude": 43.1443,
    "longitude": -86.1388
  },
  {
    "order_id": "577026592885477463",
    "reporting_date": "2025-07-03",
    "customer_id": "capriwb",
    "source_type": "Sales",
    "city": "Lancaster",
    "state": "South Carolina",
    "state_code": "SC",
    "zipcode": "29720",
    "units_sold": 1,
    "order_sales": 11.63,
    "gross_sales": 19.99,
    "refund_amount": null,
    "is_canceled": false,
    "is_refunded": false,
    "is_returned": false,
    "latitude": 34.749,
    "longitude": -80.7616
  },
  {
    "order_id": "577026592881676428",
    "reporting_date": "2025-07-03",
    "customer_id": "doreeng92",
    "source_type": "Sales",
    "city": "Seymour",
    "state": "Connecticut",
    "state_code": "CT",
    "zipcode": "06483",
    "units_sold": 1,
    "order_sales": 16.73,
    "gross_sales": 24.99,
    "refund_amount": null,
    "is_canceled": false,
    "is_refunded": false,
    "is_returned": false,
    "latitude": 41.3862,
    "longitude": -73.0817
  },
  {
    "order_id": "577026591875109549",
    "reporting_date": "2025-07-03",
    "customer_id": "mthompson50",
    "source_type": "Sales",
    "city": "Garden Valley",
    "state": "Idaho",
    "state_code": "ID",
    "zipcode": "83622",
    "units_sold": 2,
    "order_sales": 32.28,
    "gross_sales": 39.98,
    "refund_amount": null,
    "is_canceled": false,
    "is_refunded": false,
    "is_returned": false,
    "latitude": 44.0909,
    "longitude": -115.8243
  },
  {
    "order_id": "577026590502195663",
    "reporting_date": "2025-07-03",
    "customer_id": "_rawnstawp_",
    "source_type": "Sales",
    "city": "Moreno Valley",
    "state": "California",
    "state_code": "CA",
    "zipcode": "92553",
    "units_sold": 1,
    "order_sales": 15.33,
    "gross_sales": 19.99,
    "refund_amount": null,
    "is_canceled": false,
    "is_refunded": false,
    "is_returned": false,
    "latitude": 33.9157,
    "longitude": -117.2351
  },
  {
    "order_id": "577026588390757290",
    "reporting_date": "2025-07-03",
    "customer_id": "heaveng037",
    "source_type": "Sales",
    "city": "Baltimore",
    "state": "Maryland",
    "state_code": "MD",
    "zipcode": "21218",
    "units_sold": 1,
    "order_sales": 26.58,
    "gross_sales": 34.99,
    "refund_amount": null,
    "is_canceled": false,
    "is_refunded": false,
    "is_returned": false,
    "latitude": 39.3265,
    "longitude": -76.6048
  },
  {
    "order_id": "577026587677725379",
    "reporting_date": "2025-07-03",
    "customer_id": "h3alingbartherapy",
    "source_type": "Sales",
    "city": "Jacksonville",
    "state": "Florida",
    "state_code": "FL",
    "zipcode": "32277",
    "units_sold": 1,
    "order_sales": 26.58,
    "gross_sales": 34.99,
    "refund_amount": null,
    "is_canceled": false,
    "is_refunded": false,
    "is_returned": false,
    "latitude": 30.3704,
    "longitude": -81.5864
  },
  {
    "order_id": "577026587332547353",
    "reporting_date": "2025-07-03",
    "customer_id": "karen.ms1",
    "source_type": "Sales",
    "city": "Dallas",
    "state": "Texas",
    "state_code": "TX",
    "zipcode": "75224",
    "units_sold": 1,
    "order_sales": 14.53,
    "gross_sales": 19.99,
    "refund_amount": null,
    "is_canceled": false,
    "is_refunded": false,
    "is_returned": false,
    "latitude": 32.7114,
    "longitude": -96.8387
  },
  {
    "order_id": "577026586961612998",
    "reporting_date": "2025-07-03",
    "customer_id": "contrerascarolin1",
    "source_type": "Sales",
    "city": "Scranton",
    "state": "Pennsylvania",
    "state_code": "PA",
    "zipcode": "18504",
    "units_sold": 1,
    "order_sales": 16.14,
    "gross_sales": 19.99,
    "refund_amount": null,
    "is_canceled": false,
    "is_refunded": false,
    "is_returned": false,
    "latitude": 41.4128,
    "longitude": -75.6861
  },
  {
    "order_id": "577026980581707776",
    "reporting_date": "2025-07-03",
    "customer_id": "user1a2b3c5e",
    "source_type": "Sales",
    "city": "Forsyth",
    "state": "Montana",
    "state_code": "MT",
    "zipcode": "59327",
    "units_sold": 2,
    "order_sales": 32.28,
    "gross_sales": 39.98,
    "refund_amount": null,
    "is_canceled": false,
    "is_refunded": false,
    "is_returned": false,
    "latitude": 46.2819,
    "longitude": -106.6991
  },
  {
    "order_id": "577027044346204831",
    "reporting_date": "2025-07-03",
    "customer_id": "jlanger79",
    "source_type": "Sales",
    "city": "Waverly",
    "state": "Nebraska",
    "state_code": "NE",
    "zipcode": "68462",
    "units_sold": 1,
    "order_sales": 16.14,
    "gross_sales": 19.99,
    "refund_amount": null,
    "is_canceled": false,
    "is_refunded": false,
    "is_returned": false,
    "latitude": 40.9222,
    "longitude": -96.526
  },
  {
    "order_id": "577026983297126968",
    "reporting_date": "2025-07-03",
    "customer_id": "bwhit62717",
    "source_type": "Sales",
    "city": "Ahoskie",
    "state": "North Carolina",
    "state_code": "NC",
    "zipcode": "27910",
    "units_sold": 1,
    "order_sales": 11.62,
    "gross_sales": 19.99,
    "refund_amount": null,
    "is_canceled": false,
    "is_refunded": false,
    "is_returned": false,
    "latitude": 36.2957,
    "longitude": -76.9966
  },
  {
    "order_id": "577027261832074197",
    "reporting_date": "2025-07-03",
    "customer_id": "frenchiefelix",
    "source_type": "Sales",
    "city": "Tucson",
    "state": "Arizona",
    "state_code": "AZ",
    "zipcode": "85735",
    "units_sold": 1,
    "order_sales": 16.14,
    "gross_sales": 19.99,
    "refund_amount": null,
    "is_canceled": false,
    "is_refunded": false,
    "is_returned": false,
    "latitude": 32.093,
    "longitude": -111.3472
  },
  {
    "order_id": "577027383481570301",
    "reporting_date": "2025-07-03",
    "customer_id": "marielsanchez20",
    "source_type": "Sales",
    "city": "Weslaco",
    "state": "Texas",
    "state_code": "TX",
    "zipcode": "78599",
    "units_sold": 1,
    "order_sales": 14.53,
    "gross_sales": 19.99,
    "refund_amount": null,
    "is_canceled": false,
    "is_refunded": false,
    "is_returned": false,
    "latitude": 26.1595,
    "longitude": -97.9908
  },
  {
    "order_id": "577027381297909984",
    "reporting_date": "2025-07-03",
    "customer_id": "_noo_facee",
    "source_type": "Sales",
    "city": "Whittier",
    "state": "California",
    "state_code": "CA",
    "zipcode": "90605",
    "units_sold": 1,
    "order_sales": 14.53,
    "gross_sales": 19.99,
    "refund_amount": null,
    "is_canceled": false,
    "is_refunded": false,
    "is_returned": false,
    "latitude": 33.9413,
    "longitude": -118.0356
  },
  {
    "order_id": "577027378605560157",
    "reporting_date": "2025-07-03",
    "customer_id": "persefonee_",
    "source_type": "Sales",
    "city": "Coral Springs",
    "state": "Florida",
    "state_code": "FL",
    "zipcode": "33065",
    "units_sold": 1,
    "order_sales": 14.53,
    "gross_sales": 19.99,
    "refund_amount": null,
    "is_canceled": false,
    "is_refunded": false,
    "is_returned": false,
    "latitude": 26.2729,
    "longitude": -80.2603
  },
  {
    "order_id": "577027377176023459",
    "reporting_date": "2025-07-03",
    "customer_id": "nateabrams7",
    "source_type": "Sales",
    "city": "Chico",
    "state": "California",
    "state_code": "CA",
    "zipcode": "95928",
    "units_sold": 1,
    "order_sales": 16.14,
    "gross_sales": 19.99,
    "refund_amount": null,
    "is_canceled": false,
    "is_refunded": false,
    "is_returned": false,
    "latitude": 39.7224,
    "longitude": -121.8113
  },
  {
    "order_id": "577027375500530574",
    "reporting_date": "2025-07-03",
    "customer_id": "luisa1434",
    "source_type": "Sales",
    "city": "Middletown",
    "state": "New York",
    "state_code": "NY",
    "zipcode": "10940",
    "units_sold": 2,
    "order_sales": 32.28,
    "gross_sales": 39.98,
    "refund_amount": null,
    "is_canceled": false,
    "is_refunded": false,
    "is_returned": false,
    "latitude": 41.4512,
    "longitude": -74.4701
  },
  {
    "order_id": "577027372248961353",
    "reporting_date": "2025-07-03",
    "customer_id": "troybixby",
    "source_type": "Sales",
    "city": "Prior Lake",
    "state": "Minnesota",
    "state_code": "MN",
    "zipcode": "55372",
    "units_sold": 1,
    "order_sales": 14.53,
    "gross_sales": 19.99,
    "refund_amount": null,
    "is_canceled": false,
    "is_refunded": false,
    "is_returned": false,
    "latitude": 44.7107,
    "longitude": -93.4101
  },
  {
    "order_id": "577027371354067723",
    "reporting_date": "2025-07-03",
    "customer_id": "appleuser35342273",
    "source_type": "Sales",
    "city": "Modesto",
    "state": "California",
    "state_code": "CA",
    "zipcode": "95350",
    "units_sold": 1,
    "order_sales": 14.53,
    "gross_sales": 19.99,
    "refund_amount": null,
    "is_canceled": false,
    "is_refunded": false,
    "is_returned": false,
    "latitude": 37.6746,
    "longitude": -121.0113
  },
  {
    "order_id": "577027371064660629",
    "reporting_date": "2025-07-03",
    "customer_id": "dawn_marie__",
    "source_type": "Sales",
    "city": "Julesburg",
    "state": "Colorado",
    "state_code": "CO",
    "zipcode": "80737",
    "units_sold": 1,
    "order_sales": 7.91,
    "gross_sales": 19.99,
    "refund_amount": null,
    "is_canceled": false,
    "is_refunded": false,
    "is_returned": false,
    "latitude": 40.9708,
    "longitude": -102.2575
  },
  {
    "order_id": "577027370803040802",
    "reporting_date": "2025-07-03",
    "customer_id": "lucyc65",
    "source_type": "Sales",
    "city": "Abernathy",
    "state": "Texas",
    "state_code": "TX",
    "zipcode": "79311",
    "units_sold": 1,
    "order_sales": 12.35,
    "gross_sales": 19.99,
    "refund_amount": null,
    "is_canceled": false,
    "is_refunded": false,
    "is_returned": false,
    "latitude": 33.85,
    "longitude": -101.8611
  },
  {
    "order_id": "577027369040646745",
    "reporting_date": "2025-07-03",
    "customer_id": "flipin_fletcher",
    "source_type": "Sales",
    "city": "Wasilla",
    "state": "Alaska",
    "state_code": "AK",
    "zipcode": "99687",
    "units_sold": 2,
    "order_sales": 32.28,
    "gross_sales": 39.98,
    "refund_amount": null,
    "is_canceled": false,
    "is_refunded": false,
    "is_returned": false,
    "latitude": 61.5313,
    "longitude": -149.4784
  },
  {
    "order_id": "577027368972358574",
    "reporting_date": "2025-07-03",
    "customer_id": "ml182624",
    "source_type": "Sales",
    "city": "Spring",
    "state": "Texas",
    "state_code": "TX",
    "zipcode": "77386",
    "units_sold": 1,
    "order_sales": 14.53,
    "gross_sales": 19.99,
    "refund_amount": null,
    "is_canceled": false,
    "is_refunded": false,
    "is_returned": false,
    "latitude": 30.1288,
    "longitude": -95.4239
  },
  {
    "order_id": "577027368548471377",
    "reporting_date": "2025-07-03",
    "customer_id": "sandrassesthetics",
    "source_type": "Sales",
    "city": "Spokane Valley",
    "state": "Washington",
    "state_code": "WA",
    "zipcode": "99016",
    "units_sold": 1,
    "order_sales": 22.26,
    "gross_sales": 34.99,
    "refund_amount": null,
    "is_canceled": false,
    "is_refunded": false,
    "is_returned": false,
    "latitude": 47.6584,
    "longitude": -117.1568
  },
  {
    "order_id": "577027367826002509",
    "reporting_date": "2025-07-03",
    "customer_id": "teaguej14",
    "source_type": "Sales",
    "city": "Ash Flat",
    "state": "Arkansas",
    "state_code": "AR",
    "zipcode": "72513",
    "units_sold": 1,
    "order_sales": 22.26,
    "gross_sales": 34.99,
    "refund_amount": null,
    "is_canceled": false,
    "is_refunded": false,
    "is_returned": false,
    "latitude": 36.2201,
    "longitude": -91.6421
  },
  {
    "order_id": "577027367030199263",
    "reporting_date": "2025-07-03",
    "customer_id": "niday_shots",
    "source_type": "Sales",
    "city": "San Jose",
    "state": "California",
    "state_code": "CA",
    "zipcode": "95148",
    "units_sold": 1,
    "order_sales": 16.14,
    "gross_sales": 19.99,
    "refund_amount": 16.14,
    "is_canceled": false,
    "is_refunded": true,
    "is_returned": true,
    "latitude": 37.3304,
    "longitude": -121.7913
  },
  {
    "order_id": "577027364782576161",
    "reporting_date": "2025-07-03",
    "customer_id": "kek442_68",
    "source_type": "Sales",
    "city": "Gurnee",
    "state": "Illinois",
    "state_code": "IL",
    "zipcode": "60031",
    "units_sold": 1,
    "order_sales": 14.53,
    "gross_sales": 19.99,
    "refund_amount": null,
    "is_canceled": false,
    "is_refunded": false,
    "is_returned": false,
    "latitude": 42.3669,
    "longitude": -87.9452
  },
  {
    "order_id": "577027363785970673",
    "reporting_date": "2025-07-03",
    "customer_id": "cin.thi.aaa",
    "source_type": "Sales",
    "city": "Platte City",
    "state": "Missouri",
    "state_code": "MO",
    "zipcode": "64079",
    "units_sold": 2,
    "order_sales": 35.62,
    "gross_sales": 69.98,
    "refund_amount": null,
    "is_canceled": false,
    "is_refunded": false,
    "is_returned": false,
    "latitude": 39.3602,
    "longitude": -94.789
  },
  {
    "order_id": "577027363052295152",
    "reporting_date": "2025-07-03",
    "customer_id": "cynthiafelix832",
    "source_type": "Sales",
    "city": "Phoenix",
    "state": "Arizona",
    "state_code": "AZ",
    "zipcode": "85035",
    "units_sold": 1,
    "order_sales": 16.14,
    "gross_sales": 19.99,
    "refund_amount": null,
    "is_canceled": false,
    "is_refunded": false,
    "is_returned": false,
    "latitude": 33.4724,
    "longitude": -112.1832
  },
  {
    "order_id": "577027361617646198",
    "reporting_date": "2025-07-03",
    "customer_id": "brenduuhhhh",
    "source_type": "Sales",
    "city": "Houston",
    "state": "Texas",
    "state_code": "TX",
    "zipcode": "77085",
    "units_sold": 2,
    "order_sales": 32.28,
    "gross_sales": 39.98,
    "refund_amount": null,
    "is_canceled": false,
    "is_refunded": false,
    "is_returned": false,
    "latitude": 29.6218,
    "longitude": -95.4819
  },
  {
    "order_id": "577027360757944458",
    "reporting_date": "2025-07-03",
    "customer_id": "yanett729",
    "source_type": "Sales",
    "city": "Blythe",
    "state": "California",
    "state_code": "CA",
    "zipcode": "92225",
    "units_sold": 1,
    "order_sales": 13.72,
    "gross_sales": 19.99,
    "refund_amount": null,
    "is_canceled": false,
    "is_refunded": false,
    "is_returned": false,
    "latitude": 33.6103,
    "longitude": -114.5963
  },
  {
    "order_id": "577027360662000159",
    "reporting_date": "2025-07-03",
    "customer_id": "user270969235",
    "source_type": "Sales",
    "city": "Long Beach",
    "state": "California",
    "state_code": "CA",
    "zipcode": "90802",
    "units_sold": 1,
    "order_sales": 14.53,
    "gross_sales": 19.99,
    "refund_amount": null,
    "is_canceled": false,
    "is_refunded": false,
    "is_returned": false,
    "latitude": 33.7706,
    "longitude": -118.182
  },
  {
    "order_id": "577027360561599108",
    "reporting_date": "2025-07-03",
    "customer_id": "ivonestrada13",
    "source_type": "Sales",
    "city": "Lamesa",
    "state": "Texas",
    "state_code": "TX",
    "zipcode": "79331",
    "units_sold": 1,
    "order_sales": 11.62,
    "gross_sales": 19.99,
    "refund_amount": null,
    "is_canceled": false,
    "is_refunded": false,
    "is_returned": false,
    "latitude": 32.7367,
    "longitude": -101.9569
  },
  {
    "order_id": "577027358475719092",
    "reporting_date": "2025-07-03",
    "customer_id": "sandramartinez0421",
    "source_type": "Sales",
    "city": "Tucson",
    "state": "Arizona",
    "state_code": "AZ",
    "zipcode": "85713",
    "units_sold": 1,
    "order_sales": 14.53,
    "gross_sales": 19.99,
    "refund_amount": null,
    "is_canceled": false,
    "is_refunded": false,
    "is_returned": false,
    "latitude": 32.1941,
    "longitude": -110.9739
  },
  {
    "order_id": "577027358074900950",
    "reporting_date": "2025-07-03",
    "customer_id": "callmeeniyaah",
    "source_type": "Sales",
    "city": "Chicago",
    "state": "Illinois",
    "state_code": "IL",
    "zipcode": "60620",
    "units_sold": 1,
    "order_sales": 12.92,
    "gross_sales": 19.99,
    "refund_amount": null,
    "is_canceled": false,
    "is_refunded": false,
    "is_returned": false,
    "latitude": 41.7411,
    "longitude": -87.6543
  },
  {
    "order_id": "577027385752523016",
    "reporting_date": "2025-07-03",
    "customer_id": "marshall_gto",
    "source_type": "Sales",
    "city": "Modesto",
    "state": "California",
    "state_code": "CA",
    "zipcode": "95355",
    "units_sold": 2,
    "order_sales": 27.44,
    "gross_sales": 39.98,
    "refund_amount": null,
    "is_canceled": false,
    "is_refunded": false,
    "is_returned": false,
    "latitude": 37.6717,
    "longitude": -120.9482
  },
  {
    "order_id": "577027385752588552",
    "reporting_date": "2025-07-03",
    "customer_id": "marshall_gto",
    "source_type": "Sales",
    "city": "Modesto",
    "state": "California",
    "state_code": "CA",
    "zipcode": "95355",
    "units_sold": 2,
    "order_sales": 27.88,
    "gross_sales": 39.98,
    "refund_amount": null,
    "is_canceled": false,
    "is_refunded": false,
    "is_returned": false,
    "latitude": 37.6717,
    "longitude": -120.9482
  },
  {
    "order_id": "577027385919640038",
    "reporting_date": "2025-07-03",
    "customer_id": "renee_ee_",
    "source_type": "Sales",
    "city": "Hildebran",
    "state": "North Carolina",
    "state_code": "NC",
    "zipcode": "28637",
    "units_sold": 1,
    "order_sales": 16.14,
    "gross_sales": 19.99,
    "refund_amount": null,
    "is_canceled": false,
    "is_refunded": false,
    "is_returned": false,
    "latitude": 35.718,
    "longitude": -81.4194
  },
  {
    "order_id": "577027405983551880",
    "reporting_date": "2025-07-03",
    "customer_id": "jenni4dlr",
    "source_type": "Sales",
    "city": "Kerrville",
    "state": "Texas",
    "state_code": "TX",
    "zipcode": "78028",
    "units_sold": 1,
    "order_sales": 14.53,
    "gross_sales": 19.99,
    "refund_amount": null,
    "is_canceled": false,
    "is_refunded": false,
    "is_returned": false,
    "latitude": 30.0416,
    "longitude": -99.1408
  },
  {
    "order_id": "577027415685960508",
    "reporting_date": "2025-07-03",
    "customer_id": "artemisxcalypso23",
    "source_type": "Sales",
    "city": "Philadelphia",
    "state": "Pennsylvania",
    "state_code": "PA",
    "zipcode": "19143",
    "units_sold": 1,
    "order_sales": 14.53,
    "gross_sales": 19.99,
    "refund_amount": null,
    "is_canceled": false,
    "is_refunded": false,
    "is_returned": false,
    "latitude": 39.9448,
    "longitude": -75.2288
  },
  {
    "order_id": "577027415639888217",
    "reporting_date": "2025-07-03",
    "customer_id": "pdokiebarajas",
    "source_type": "Sales",
    "city": "Frisco",
    "state": "Texas",
    "state_code": "TX",
    "zipcode": "75035",
    "units_sold": 1,
    "order_sales": 13.72,
    "gross_sales": 19.99,
    "refund_amount": null,
    "is_canceled": false,
    "is_refunded": false,
    "is_returned": false,
    "latitude": 33.1377,
    "longitude": -96.7524
  },
  {
    "order_id": "577027415243985400",
    "reporting_date": "2025-07-03",
    "customer_id": "k101065",
    "source_type": "Sales",
    "city": "Fresno",
    "state": "California",
    "state_code": "CA",
    "zipcode": "93725",
    "units_sold": 1,
    "order_sales": 16.14,
    "gross_sales": 19.99,
    "refund_amount": null,
    "is_canceled": false,
    "is_refunded": false,
    "is_returned": false,
    "latitude": 36.6207,
    "longitude": -119.7308
  },
  {
    "order_id": "577027415218230078",
    "reporting_date": "2025-07-03",
    "customer_id": "sarabellum87",
    "source_type": "Sales",
    "city": "Yucca Valley",
    "state": "California",
    "state_code": "CA",
    "zipcode": "92284",
    "units_sold": 1,
    "order_sales": 7.91,
    "gross_sales": 19.99,
    "refund_amount": null,
    "is_canceled": false,
    "is_refunded": false,
    "is_returned": false,
    "latitude": 34.1559,
    "longitude": -116.4313
  },
  {
    "order_id": "577027413963412258",
    "reporting_date": "2025-07-03",
    "customer_id": "hotgurlnataliee",
    "source_type": "Sales",
    "city": "Plymouth",
    "state": "Wisconsin",
    "state_code": "WI",
    "zipcode": "53073",
    "units_sold": 1,
    "order_sales": 29.73,
    "gross_sales": 34.99,
    "refund_amount": null,
    "is_canceled": false,
    "is_refunded": false,
    "is_returned": false,
    "latitude": 43.7526,
    "longitude": -87.9779
  },
  {
    "order_id": "577027413490045160",
    "reporting_date": "2025-07-03",
    "customer_id": "smilewithstylerdh",
    "source_type": "Sales",
    "city": "Tucson",
    "state": "Arizona",
    "state_code": "AZ",
    "zipcode": "85755",
    "units_sold": 2,
    "order_sales": 0.0,
    "gross_sales": 0.0,
    "refund_amount": null,
    "is_canceled": false,
    "is_refunded": false,
    "is_returned": false,
    "latitude": 32.4227,
    "longitude": -110.9768
  },
  {
    "order_id": "577027413457408019",
    "reporting_date": "2025-07-03",
    "customer_id": "katybuck",
    "source_type": "Sales",
    "city": "Richlands",
    "state": "North Carolina",
    "state_code": "NC",
    "zipcode": "28574",
    "units_sold": 1,
    "order_sales": 14.53,
    "gross_sales": 19.99,
    "refund_amount": null,
    "is_canceled": false,
    "is_refunded": false,
    "is_returned": false,
    "latitude": 34.8624,
    "longitude": -77.5863
  },
  {
    "order_id": "577027412018172672",
    "reporting_date": "2025-07-03",
    "customer_id": "lilfoots",
    "source_type": "Sales",
    "city": "Salt Lake City",
    "state": "Utah",
    "state_code": "UT",
    "zipcode": "84103",
    "units_sold": 1,
    "order_sales": 16.14,
    "gross_sales": 19.99,
    "refund_amount": null,
    "is_canceled": false,
    "is_refunded": false,
    "is_returned": false,
    "latitude": 40.7776,
    "longitude": -111.8749
  },
  {
    "order_id": "577027411579998920",
    "reporting_date": "2025-07-03",
    "customer_id": "themightybrito",
    "source_type": "Sales",
    "city": "Midland",
    "state": "Texas",
    "state_code": "TX",
    "zipcode": "79703",
    "units_sold": 1,
    "order_sales": 22.26,
    "gross_sales": 34.99,
    "refund_amount": null,
    "is_canceled": false,
    "is_refunded": false,
    "is_returned": false,
    "latitude": 31.9721,
    "longitude": -102.1369
  },
  {
    "order_id": "577027408710832816",
    "reporting_date": "2025-07-03",
    "customer_id": "johannac417",
    "source_type": "Sales",
    "city": "Camdenton",
    "state": "Missouri",
    "state_code": "MO",
    "zipcode": "65020",
    "units_sold": 1,
    "order_sales": 14.85,
    "gross_sales": 19.99,
    "refund_amount": null,
    "is_canceled": false,
    "is_refunded": false,
    "is_returned": false,
    "latitude": 38.0185,
    "longitude": -92.7677
  },
  {
    "order_id": "577027405350278037",
    "reporting_date": "2025-07-03",
    "customer_id": "saved_by_grace7",
    "source_type": "Sales",
    "city": "Murrieta",
    "state": "California",
    "state_code": "CA",
    "zipcode": "92562",
    "units_sold": 1,
    "order_sales": 22.26,
    "gross_sales": 34.99,
    "refund_amount": null,
    "is_canceled": false,
    "is_refunded": false,
    "is_returned": false,
    "latitude": 33.5631,
    "longitude": -117.2738
  },
  {
    "order_id": "577027386475319697",
    "reporting_date": "2025-07-03",
    "customer_id": "daisialynnhaynes",
    "source_type": "Sales",
    "city": "Muskegon",
    "state": "Michigan",
    "state_code": "MI",
    "zipcode": "49442",
    "units_sold": 1,
    "order_sales": 11.62,
    "gross_sales": 19.99,
    "refund_amount": null,
    "is_canceled": false,
    "is_refunded": false,
    "is_returned": false,
    "latitude": 43.2329,
    "longitude": -86.1885
  },
  {
    "order_id": "577027403821912828",
    "reporting_date": "2025-07-03",
    "customer_id": "corinacruz10",
    "source_type": "Sales",
    "city": "Tucson",
    "state": "Arizona",
    "state_code": "AZ",
    "zipcode": "85705",
    "units_sold": 1,
    "order_sales": 14.53,
    "gross_sales": 19.99,
    "refund_amount": null,
    "is_canceled": false,
    "is_refunded": false,
    "is_returned": false,
    "latitude": 32.2691,
    "longitude": -110.9845
  },
  {
    "order_id": "577027401955971992",
    "reporting_date": "2025-07-03",
    "customer_id": "jobanasotelo",
    "source_type": "Sales",
    "city": "Waco",
    "state": "Texas",
    "state_code": "TX",
    "zipcode": "76708",
    "units_sold": 1,
    "order_sales": 17.81,
    "gross_sales": 34.99,
    "refund_amount": null,
    "is_canceled": false,
    "is_refunded": false,
    "is_returned": false,
    "latitude": 31.5765,
    "longitude": -97.1786
  },
  {
    "order_id": "577027401200210924",
    "reporting_date": "2025-07-03",
    "customer_id": "jaylen.mijares",
    "source_type": "Sales",
    "city": "San Angelo",
    "state": "Texas",
    "state_code": "TX",
    "zipcode": "76904",
    "units_sold": 1,
    "order_sales": 16.14,
    "gross_sales": 19.99,
    "refund_amount": null,
    "is_canceled": false,
    "is_refunded": false,
    "is_returned": false,
    "latitude": 31.4194,
    "longitude": -100.48
  },
  {
    "order_id": "577027397465772734",
    "reporting_date": "2025-07-03",
    "customer_id": "funsizehugg",
    "source_type": "Sales",
    "city": "Mesa",
    "state": "Arizona",
    "state_code": "AZ",
    "zipcode": "85202",
    "units_sold": 2,
    "order_sales": 44.52,
    "gross_sales": 69.98,
    "refund_amount": null,
    "is_canceled": false,
    "is_refunded": false,
    "is_returned": false,
    "latitude": 33.3851,
    "longitude": -111.8724
  },
  {
    "order_id": "577027395734180321",
    "reporting_date": "2025-07-03",
    "customer_id": "lisahns3",
    "source_type": "Sales",
    "city": "Allentown",
    "state": "Pennsylvania",
    "state_code": "PA",
    "zipcode": "18104",
    "units_sold": 1,
    "order_sales": 14.53,
    "gross_sales": 19.99,
    "refund_amount": null,
    "is_canceled": false,
    "is_refunded": false,
    "is_returned": false,
    "latitude": 40.6018,
    "longitude": -75.5225
  },
  {
    "order_id": "577027394950304119",
    "reporting_date": "2025-07-03",
    "customer_id": "rowdybronc",
    "source_type": "Sales",
    "city": "Chandler",
    "state": "Arizona",
    "state_code": "AZ",
    "zipcode": "85249",
    "units_sold": 1,
    "order_sales": 14.53,
    "gross_sales": 19.99,
    "refund_amount": null,
    "is_canceled": false,
    "is_refunded": false,
    "is_returned": false,
    "latitude": 33.2414,
    "longitude": -111.7745
  },
  {
    "order_id": "577027394193167178",
    "reporting_date": "2025-07-03",
    "customer_id": "josef.snurk",
    "source_type": "Sales",
    "city": "Ledyard",
    "state": "Connecticut",
    "state_code": "CT",
    "zipcode": "06339",
    "units_sold": 1,
    "order_sales": 22.26,
    "gross_sales": 34.99,
    "refund_amount": null,
    "is_canceled": false,
    "is_refunded": false,
    "is_returned": false,
    "latitude": 41.4401,
    "longitude": -71.9956
  },
  {
    "order_id": "577027391874765261",
    "reporting_date": "2025-07-03",
    "customer_id": "blayden.d",
    "source_type": "Sales",
    "city": "Lucedale",
    "state": "Mississippi",
    "state_code": "MS",
    "zipcode": "39452",
    "units_sold": 3,
    "order_sales": 48.42,
    "gross_sales": 59.97,
    "refund_amount": null,
    "is_canceled": false,
    "is_refunded": false,
    "is_returned": false,
    "latitude": 30.8668,
    "longitude": -88.649
  },
  {
    "order_id": "577027389483225286",
    "reporting_date": "2025-07-03",
    "customer_id": "bikebxirjfc",
    "source_type": "Sales",
    "city": "East Northport",
    "state": "New York",
    "state_code": "NY",
    "zipcode": "11731",
    "units_sold": 1,
    "order_sales": 17.81,
    "gross_sales": 34.99,
    "refund_amount": null,
    "is_canceled": false,
    "is_refunded": false,
    "is_returned": false,
    "latitude": 40.857,
    "longitude": -73.3146
  },
  {
    "order_id": "577027387834274102",
    "reporting_date": "2025-07-03",
    "customer_id": "drein702",
    "source_type": "Sales",
    "city": "North Las Vegas",
    "state": "Nevada",
    "state_code": "NV",
    "zipcode": "89086",
    "units_sold": 1,
    "order_sales": 16.14,
    "gross_sales": 19.99,
    "refund_amount": null,
    "is_canceled": false,
    "is_refunded": false,
    "is_returned": false,
    "latitude": 36.2809,
    "longitude": -115.1349
  },
  {
    "order_id": "577027355026821358",
    "reporting_date": "2025-07-03",
    "customer_id": "jerbderb_24",
    "source_type": "Sales",
    "city": "Stafford",
    "state": "Virginia",
    "state_code": "VA",
    "zipcode": "22554",
    "units_sold": 1,
    "order_sales": 22.26,
    "gross_sales": 34.99,
    "refund_amount": null,
    "is_canceled": false,
    "is_refunded": false,
    "is_returned": false,
    "latitude": 38.4586,
    "longitude": -77.4306
  },
  {
    "order_id": "577027352582001390",
    "reporting_date": "2025-07-03",
    "customer_id": "christypayne83",
    "source_type": "Sales",
    "city": "Jackson",
    "state": "Mississippi",
    "state_code": "MS",
    "zipcode": "39212",
    "units_sold": 1,
    "order_sales": 14.53,
    "gross_sales": 19.99,
    "refund_amount": null,
    "is_canceled": false,
    "is_refunded": false,
    "is_returned": false,
    "latitude": 32.2435,
    "longitude": -90.2612
  },
  {
    "order_id": "577027350403125889",
    "reporting_date": "2025-07-03",
    "customer_id": "veelizm27",
    "source_type": "Sales",
    "city": "Los Angeles",
    "state": "California",
    "state_code": "CA",
    "zipcode": "90043",
    "units_sold": 1,
    "order_sales": 11.63,
    "gross_sales": 19.99,
    "refund_amount": null,
    "is_canceled": false,
    "is_refunded": false,
    "is_returned": false,
    "latitude": 33.9871,
    "longitude": -118.3321
  },
  {
    "order_id": "577027278618792463",
    "reporting_date": "2025-07-03",
    "customer_id": "onestrongmamaa",
    "source_type": "Sales",
    "city": "Pembroke Pines",
    "state": "Florida",
    "state_code": "FL",
    "zipcode": "33026",
    "units_sold": 1,
    "order_sales": 12.91,
    "gross_sales": 19.99,
    "refund_amount": null,
    "is_canceled": false,
    "is_refunded": false,
    "is_returned": false,
    "latitude": 26.0229,
    "longitude": -80.2974
  },
  {
    "order_id": "577027293525021298",
    "reporting_date": "2025-07-03",
    "customer_id": "maddydiaz5",
    "source_type": "Sales",
    "city": "Terrytown",
    "state": "Louisiana",
    "state_code": "LA",
    "zipcode": "70056",
    "units_sold": 1,
    "order_sales": 14.53,
    "gross_sales": 19.99,
    "refund_amount": null,
    "is_canceled": false,
    "is_refunded": false,
    "is_returned": false,
    "latitude": 29.8872,
    "longitude": -90.0331
  },
  {
    "order_id": "577027293412168041",
    "reporting_date": "2025-07-03",
    "customer_id": "aaaaaliyahv",
    "source_type": "Sales",
    "city": "Absecon",
    "state": "New Jersey",
    "state_code": "NJ",
    "zipcode": "08201",
    "units_sold": 1,
    "order_sales": 11.62,
    "gross_sales": 19.99,
    "refund_amount": 11.62,
    "is_canceled": false,
    "is_refunded": true,
    "is_returned": true,
    "latitude": 39.4218,
    "longitude": -74.4949
  },
  {
    "order_id": "577027291898810475",
    "reporting_date": "2025-07-03",
    "customer_id": "sindorella2829",
    "source_type": "Sales",
    "city": "Fort Myers",
    "state": "Florida",
    "state_code": "FL",
    "zipcode": "33905",
    "units_sold": 1,
    "order_sales": 14.53,
    "gross_sales": 19.99,
    "refund_amount": null,
    "is_canceled": false,
    "is_refunded": false,
    "is_returned": false,
    "latitude": 26.6693,
    "longitude": -81.7605
  },
  {
    "order_id": "577027288653533742",
    "reporting_date": "2025-07-03",
    "customer_id": "jjcreativecrafting",
    "source_type": "Sales",
    "city": "Del City",
    "state": "Oklahoma",
    "state_code": "OK",
    "zipcode": "73115",
    "units_sold": 1,
    "order_sales": 14.53,
    "gross_sales": 19.99,
    "refund_amount": null,
    "is_canceled": false,
    "is_refunded": false,
    "is_returned": false,
    "latitude": 35.4449,
    "longitude": -97.446
  },
  {
    "order_id": "577027288423633640",
    "reporting_date": "2025-07-03",
    "customer_id": "ramyagarcia01",
    "source_type": "Sales",
    "city": "Bayonne",
    "state": "New Jersey",
    "state_code": "NJ",
    "zipcode": "07002",
    "units_sold": 1,
    "order_sales": 14.53,
    "gross_sales": 19.99,
    "refund_amount": null,
    "is_canceled": false,
    "is_refunded": false,
    "is_returned": false,
    "latitude": 40.6664,
    "longitude": -74.1192
  },
  {
    "order_id": "577027287431156331",
    "reporting_date": "2025-07-03",
    "customer_id": "nayelyvera2",
    "source_type": "Sales",
    "city": "San Diego",
    "state": "California",
    "state_code": "CA",
    "zipcode": "92113",
    "units_sold": 1,
    "order_sales": 11.62,
    "gross_sales": 19.99,
    "refund_amount": null,
    "is_canceled": false,
    "is_refunded": false,
    "is_returned": false,
    "latitude": 32.697,
    "longitude": -117.1153
  },
  {
    "order_id": "577027283366417216",
    "reporting_date": "2025-07-03",
    "customer_id": "ladyjgl1",
    "source_type": "Sales",
    "city": "Tahlequah",
    "state": "Oklahoma",
    "state_code": "OK",
    "zipcode": "74464",
    "units_sold": 1,
    "order_sales": 22.26,
    "gross_sales": 34.99,
    "refund_amount": null,
    "is_canceled": false,
    "is_refunded": false,
    "is_returned": false,
    "latitude": 35.9094,
    "longitude": -94.9787
  },
  {
    "order_id": "577027282449961085",
    "reporting_date": "2025-07-03",
    "customer_id": "knjkreations1",
    "source_type": "Sales",
    "city": "Olivehurst",
    "state": "California",
    "state_code": "CA",
    "zipcode": "95961",
    "units_sold": 1,
    "order_sales": 14.53,
    "gross_sales": 19.99,
    "refund_amount": 14.53,
    "is_canceled": false,
    "is_refunded": true,
    "is_returned": true,
    "latitude": 39.0861,
    "longitude": -121.5497
  },
  {
    "order_id": "577027281411609491",
    "reporting_date": "2025-07-03",
    "customer_id": "brownrn5",
    "source_type": "Sales",
    "city": "North Chesterfield",
    "state": "Virginia",
    "state_code": "VA",
    "zipcode": "23235",
    "units_sold": 2,
    "order_sales": 25.83,
    "gross_sales": 39.98,
    "refund_amount": null,
    "is_canceled": false,
    "is_refunded": false,
    "is_returned": false,
    "latitude": 37.5133,
    "longitude": -77.5646
  },
  {
    "order_id": "577027278867239814",
    "reporting_date": "2025-07-03",
    "customer_id": "rachelleroswell",
    "source_type": "Sales",
    "city": "Galt",
    "state": "California",
    "state_code": "CA",
    "zipcode": "95632",
    "units_sold": 1,
    "order_sales": 13.72,
    "gross_sales": 19.99,
    "refund_amount": null,
    "is_canceled": false,
    "is_refunded": false,
    "is_returned": false,
    "latitude": 38.2691,
    "longitude": -121.3
  },
  {
    "order_id": "577027275724853775",
    "reporting_date": "2025-07-03",
    "customer_id": "onestrongmamaa",
    "source_type": "Sales",
    "city": "**************",
    "state": "Florida",
    "state_code": "FL",
    "zipcode": "",
    "units_sold": 1,
    "order_sales": 13.72,
    "gross_sales": 19.99,
    "refund_amount": 13.72,
    "is_canceled": true,
    "is_refunded": true,
    "is_returned": true,
    "latitude": null,
    "longitude": null
  },
  {
    "order_id": "577027294089221028",
    "reporting_date": "2025-07-03",
    "customer_id": "victoria.leigh.xoxo",
    "source_type": "Sales",
    "city": "Atco",
    "state": "New Jersey",
    "state_code": "NJ",
    "zipcode": "08004",
    "units_sold": 1,
    "order_sales": 14.53,
    "gross_sales": 19.99,
    "refund_amount": null,
    "is_canceled": false,
    "is_refunded": false,
    "is_returned": false,
    "latitude": 39.76,
    "longitude": -74.8665
  },
  {
    "order_id": "577027273605288575",
    "reporting_date": "2025-07-03",
    "customer_id": "blerghs",
    "source_type": "Sales",
    "city": "Marietta",
    "state": "Georgia",
    "state_code": "GA",
    "zipcode": "30067",
    "units_sold": 1,
    "order_sales": 22.26,
    "gross_sales": 34.99,
    "refund_amount": null,
    "is_canceled": false,
    "is_refunded": false,
    "is_returned": false,
    "latitude": 33.9282,
    "longitude": -84.4733
  },
  {
    "order_id": "577027273261945065",
    "reporting_date": "2025-07-03",
    "customer_id": "user5719552221829",
    "source_type": "Sales",
    "city": "Jackson",
    "state": "North Carolina",
    "state_code": "NC",
    "zipcode": "27845",
    "units_sold": 1,
    "order_sales": 14.53,
    "gross_sales": 19.99,
    "refund_amount": null,
    "is_canceled": false,
    "is_refunded": false,
    "is_returned": false,
    "latitude": 36.3896,
    "longitude": -77.4214
  },
  {
    "order_id": "577027271981896599",
    "reporting_date": "2025-07-03",
    "customer_id": "recinosm74",
    "source_type": "Sales",
    "city": "Homestead",
    "state": "Florida",
    "state_code": "FL",
    "zipcode": "33033",
    "units_sold": 1,
    "order_sales": 22.26,
    "gross_sales": 34.99,
    "refund_amount": null,
    "is_canceled": false,
    "is_refunded": false,
    "is_returned": false,
    "latitude": 25.4906,
    "longitude": -80.438
  },
  {
    "order_id": "577027271498044215",
    "reporting_date": "2025-07-03",
    "customer_id": "janiasrealdeals",
    "source_type": "Sales",
    "city": "Morgantown",
    "state": "Pennsylvania",
    "state_code": "PA",
    "zipcode": "19543",
    "units_sold": 2,
    "order_sales": 52.21,
    "gross_sales": 99.98,
    "refund_amount": null,
    "is_canceled": false,
    "is_refunded": false,
    "is_returned": false,
    "latitude": 40.1552,
    "longitude": -75.8998
  },
  {
    "order_id": "577027269835985603",
    "reporting_date": "2025-07-03",
    "customer_id": "elizabethdeleon71971",
    "source_type": "Sales",
    "city": "Chicago",
    "state": "Illinois",
    "state_code": "IL",
    "zipcode": "60651",
    "units_sold": 1,
    "order_sales": 14.53,
    "gross_sales": 19.99,
    "refund_amount": null,
    "is_canceled": false,
    "is_refunded": false,
    "is_returned": false,
    "latitude": 41.9025,
    "longitude": -87.7393
  },
  {
    "order_id": "577027269452927694",
    "reporting_date": "2025-07-03",
    "customer_id": "christracee321",
    "source_type": "Sales",
    "city": "Blue Island",
    "state": "Illinois",
    "state_code": "IL",
    "zipcode": "60406",
    "units_sold": 1,
    "order_sales": 15.29,
    "gross_sales": 19.99,
    "refund_amount": null,
    "is_canceled": false,
    "is_refunded": false,
    "is_returned": false,
    "latitude": 41.6582,
    "longitude": -87.6795
  },
  {
    "order_id": "577027268765061326",
    "reporting_date": "2025-07-03",
    "customer_id": "eljano1973",
    "source_type": "Sales",
    "city": "Miami",
    "state": "Florida",
    "state_code": "FL",
    "zipcode": "33177",
    "units_sold": 1,
    "order_sales": 26.58,
    "gross_sales": 34.99,
    "refund_amount": null,
    "is_canceled": false,
    "is_refunded": false,
    "is_returned": false,
    "latitude": 25.5968,
    "longitude": -80.4046
  },
  {
    "order_id": "577027265733956253",
    "reporting_date": "2025-07-03",
    "customer_id": "user8392736280",
    "source_type": "Sales",
    "city": "Phoenix",
    "state": "Arizona",
    "state_code": "AZ",
    "zipcode": "85041",
    "units_sold": 1,
    "order_sales": 22.26,
    "gross_sales": 34.99,
    "refund_amount": null,
    "is_canceled": false,
    "is_refunded": false,
    "is_returned": false,
    "latitude": 33.3889,
    "longitude": -112.0954
  },
  {
    "order_id": "577027264109515381",
    "reporting_date": "2025-07-03",
    "customer_id": "jennifergw",
    "source_type": "Sales",
    "city": "Presque Isle",
    "state": "Maine",
    "state_code": "ME",
    "zipcode": "04769",
    "units_sold": 1,
    "order_sales": 16.14,
    "gross_sales": 19.99,
    "refund_amount": null,
    "is_canceled": false,
    "is_refunded": false,
    "is_returned": false,
    "latitude": 46.6842,
    "longitude": -68.0118
  },
  {
    "order_id": "577027263391699266",
    "reporting_date": "2025-07-03",
    "customer_id": "casd253",
    "source_type": "Sales",
    "city": "Layton",
    "state": "Utah",
    "state_code": "UT",
    "zipcode": "84040",
    "units_sold": 1,
    "order_sales": 14.53,
    "gross_sales": 19.99,
    "refund_amount": null,
    "is_canceled": false,
    "is_refunded": false,
    "is_returned": false,
    "latitude": 41.0846,
    "longitude": -111.9274
  },